# LAS format data
~Version Information
VERS.     2.00: CWLS LOG ASCII STANDARD - VERSION 2.0
WRAP.       NO: ONE LINE PER DEPTH STEP
~Well Information
#MNEM   .UNITS    DATA                           DESCRIPTION
#----   ------    ----                           -----------
STRT    .M        0.1000                        :First Index Value
STOP    .M        4856.1008                     :Last Index Value
STEP    .M        -0.1000                       :Frame Spacing
NULL    .         -999.2500                     :Absent Value
WELL    .         L06-07                        :Well Name   
NAME	.         L06-07                        :Well Name   
FLD     .         L Block                       :Field Name  
CNTY    .                                       :County
STAT    .                                       :State
CTRY    .                                       :Country
LOC     .                                       :Location
API     .                                       :API Number
UWI     .         L06-07                        :UWI Number
DATE    .                                       :Date
COMP    .                                       :Company
SRVC    .                                       :Service Company
LATI    .DEG	53.706549                         :LATITUDE 
LONG    .DEG	4.898703                          :LONGITUDE 
~Parameter Information
#MNEM   .UNITS    VALUE                          DESCRIPTION
#----   ------    -----                          -----------
TDL     .M        4865.00000                    :Total Depth (Logger)
TDD     .M        4865.00000                    :Total Depth (Driller)   
UBID    .         8971                          :Unique Borehole Id  
PDAT    .         Mean Sea Level                :Permanent Datum 
EPD     .M           0.00000                    :Elevation of Permanent Datum (PDAT) above Mean Sea Level
LMF     .         Rotary Table                  :Logging Measured From (Name of Logging Elevation Reference) 
APD     .M          42.00000                    :Elevation of Depth Reference (LMF) Above Permanent Datum
~Curve Information
#MNEM   .UNITS    API CODE                       CURVE DESCRIPTION
#----   ------    --------                       -----------------
DEPT    .M                                      :1     Index curve
GR      .GAPI                                   :2     L06-07
DT      .US/F                                   :3     L06-07
RHOB    .G/C3                                   :4     L06-07
DRHO    .G/C3                                   :5     L06-07
NPHI    .V/V                                    :6     L06-07
~Ascii Log Data
# ...
    4464.1008     96.864532     82.807892   -999.250000   -999.250000   -999.250000
    4464.2008    102.564789     83.136459   -999.250000   -999.250000   -999.250000
    4464.3008    109.325302     83.701614   -999.250000   -999.250000   -999.250000
    4464.4008    115.276138     84.406586   -999.250000   -999.250000   -999.250000
    4464.5008    120.753540     85.112076   -999.250000   -999.250000   -999.250000
    4464.6008    125.056702     85.679047   -999.250000   -999.250000   -999.250000
    4464.7008    125.969971     86.006805   -999.250000   -999.250000   -999.250000
    4464.8008    122.405487     85.993530   -999.250000   -999.250000   -999.250000
    4464.9008    115.300369     85.645004   -999.250000   -999.250000   -999.250000
    4465.0008    105.899261     84.990921   -999.250000   -999.250000   -999.250000
    4465.1008     96.401215     84.041107   -999.250000   -999.250000   -999.250000
    4465.2008     89.887039     82.966583   -999.250000   -999.250000   -999.250000
    4465.3008     89.389175     81.904709   -999.250000   -999.250000   -999.250000
    4465.4008     94.950485     80.957245   -999.250000   -999.250000   -999.250000
    4465.5008    102.311981     80.211563   -999.250000   -999.250000   -999.250000
    4465.6008    105.929596     79.746841   -999.250000   -999.250000   -999.250000
    4465.7008    104.967758     79.588425   -999.250000   -999.250000   -999.250000
    4465.8008    103.105988     79.566574   -999.250000   -999.250000   -999.250000
    4465.9008    101.984879     79.592178   -999.250000   -999.250000   -999.250000
    4466.0008    101.725693     79.693909   -999.250000   -999.250000   -999.250000
    4466.1008    100.356323     79.750854   -999.250000   -999.250000   -999.250000
    4466.2008     96.926941     79.674561   -999.250000   -999.250000   -999.250000
    4466.3008     93.124542     79.590591   -999.250000   -999.250000   -999.250000
    4466.4008     90.938019     79.507751   -999.250000   -999.250000      0.177419
    4466.5008     90.915131     79.389236   -999.250000   -999.250000      0.171902
    4466.6008     92.490433     79.262115   -999.250000   -999.250000      0.170603
    4466.7008     93.758423     79.124939   -999.250000   -999.250000      0.175678
    4466.8008     93.292450     78.949860   -999.250000   -999.250000      0.184747
    4466.9008     91.102219     78.720566   -999.250000   -999.250000      0.194343
    4467.0008     88.461166     78.488831   -999.250000   -999.250000      0.187569
    4467.1008     87.006149     78.362411   -999.250000   -999.250000      0.171486
    4467.2008     87.128555     78.295349   -999.250000   -999.250000      0.161484
    4467.3008     88.538345     78.267563   -999.250000   -999.250000      0.153870
    4467.4008     89.141708     78.291473   -999.250000   -999.250000      0.146794
    4467.5008     87.789429     78.290100   -999.250000   -999.250000      0.152644
    4467.6008     85.664734     78.249908   -999.250000   -999.250000      0.163895
    4467.7008     83.219574     78.096237   -999.250000   -999.250000      0.168625
    4467.8008     81.768723     77.937759   -999.250000   -999.250000      0.171654
    4467.9008     83.228424     77.796005      2.647432   -999.250000      0.167178
    4468.0008     87.282364     77.703476      2.655293   -999.250000      0.153242
    4468.1008     90.265884     77.643082      2.655130     -0.003836      0.159646
    4468.2008     93.348251     77.622086      2.647748     -0.004102      0.172744
    4468.3008     99.056747     77.602966      2.635575     -0.007629      0.171030
    4468.4008    103.690613     77.620148      2.620498     -0.012159      0.175052
    4468.5008    104.736313     77.717010      2.608459     -0.015802      0.188132
    4468.6008    103.197922     77.933594      2.603477     -0.016792      0.207598
    4468.7008    100.476166     78.198746      2.605242     -0.017169      0.215995
    4468.8008     99.080994     78.502365      2.608864     -0.019338      0.210013
    4468.9008     99.768509     78.675323      2.610476     -0.024089      0.190593
    4469.0008     99.113098     78.701401      2.606483     -0.029363      0.179042
    4469.1008     94.759674     78.447800      2.596740     -0.034344      0.181292
    4469.2008     88.920944     78.103271      2.587550     -0.038022      0.183931
    4469.3008     84.931641     77.721405      2.582265     -0.039750      0.177300
    4469.4008     85.226944     77.403702      2.581809     -0.039964      0.168344
    4469.5008     88.823563     77.151855      2.582331     -0.039204      0.171200
    4469.6008     92.947083     76.966278      2.581638     -0.038338      0.179821
    4469.7008     94.994507     76.899933      2.581601     -0.038102      0.180041
    4469.8008     95.995026     76.939011      2.584612     -0.038516      0.179326
    4469.9008     97.816711     77.132401      2.586957     -0.040108      0.181078
    4470.0008    100.671432     77.571655      2.585726     -0.043002      0.183220
    4470.1008    103.247086     78.146164      2.583625     -0.046111      0.185146
    4470.2008    104.665298     78.809677      2.583014     -0.048549      0.190386
    4470.3008    105.233032     79.496628      2.583074     -0.049943      0.203113
    4470.4008    106.075195     80.208298      2.584284     -0.050251      0.190589
    4470.5008    109.065506     80.925613      2.587874     -0.049136      0.149577
    4470.6008    113.843094     81.601028      2.593802     -0.046321      0.165570
    4470.7008    116.211609     82.217896      2.602296     -0.042049      0.220761
    4470.8008    113.639069     82.739960      2.611360     -0.037482      0.243032
    4470.9008    109.456223     83.195755      2.617371     -0.034181      0.223542
    4471.0008    108.246536     83.608032      2.617395     -0.032890      0.212339
    4471.1008    110.705353     83.946289      2.612795     -0.033217      0.218583
    4471.2008    113.930984     84.154129      2.607942     -0.034574      0.227036
    4471.3008    114.234039     84.170914      2.603560     -0.036808      0.233950
    4471.4008    110.673660     83.985092      2.597930     -0.039936      0.232585
    4471.5008    105.742355     83.684738      2.591319     -0.043638      0.243125
    4471.6008    101.999359     83.301636      2.584498     -0.047201      0.261445
    4471.7008     99.599319     82.811920      2.576927     -0.050326      0.248408
    4471.8008     97.699249     82.169312      2.569409     -0.052833   -999.250000
    4471.9008     96.456116     81.337189      2.565196     -0.054310   -999.250000
    4472.0008     95.692215     80.319000      2.565297     -0.054834   -999.250000
    4472.1008     94.097473     79.245148      2.567649     -0.054741   -999.250000
    4472.2008     90.703949     78.240250      2.571070     -0.054140   -999.250000
    4472.3008     86.507401     77.375793      2.576341     -0.053016   -999.250000
    4472.4008     83.781006     76.701340      2.582932     -0.051758   -999.250000
    4472.5008     83.754044     76.241028      2.588080     -0.051134   -999.250000
    4472.6008     85.944550     75.991959      2.588706     -0.051706   -999.250000
    4472.7008     89.223343     75.947693      2.584407     -0.053360   -999.250000
    4472.8008     92.632324     76.093933      2.577913     -0.055540   -999.250000
    4472.9008     95.325439     76.383682      2.571991     -0.057900   -999.250000
    4473.0008     96.553238     76.780945      2.567505     -0.060726   -999.250000
    4473.1008     96.099716     77.243729      2.563123   -999.250000   -999.250000
    4473.2008     94.634293     77.684357   -999.250000   -999.250000   -999.250000
    4473.3008     93.163101     77.999008   -999.250000   -999.250000   -999.250000
    4473.4008     92.313950     78.143326   -999.250000   -999.250000   -999.250000
    4473.5008     91.932068     78.133789   -999.250000   -999.250000   -999.250000
    4473.6008     91.281021     78.003281   -999.250000   -999.250000   -999.250000
