# LAS format data
~Version Information
VERS.     2.00: CWLS LOG ASCII STANDARD - VERSION 2.0
WRAP.       NO: ONE LINE PER DEPTH STEP
~Well Information
#MNEM   .UNITS    DATA                           DESCRIPTION
#----   ------    ----                           -----------
STRT    .M        0.1000                        :First Index Value
STOP    .M        4856.1008                     :Last Index Value
STEP    .M        -0.1000                       :Frame Spacing
NULL    .         -999.2500                     :Absent Value
WELL    .         L06-07                        :Well Name   
NAME	.         L06-07                        :Well Name   
FLD     .         L Block                       :Field Name  
CNTY    .                                       :County
STAT    .                                       :State
CTRY    .                                       :Country
LOC     .                                       :Location
API     .                                       :API Number
UWI     .         L06-07                        :UWI Number
DATE    .                                       :Date
COMP    .                                       :Company
SRVC    .                                       :Service Company
LATI    .DEG	53.706549                         :LATITUDE 
LONG    .DEG	4.898703                          :LONGITUDE 
~Parameter Information
#MNEM   .UNITS    VALUE                          DESCRIPTION
#----   ------    -----                          -----------
TDL     .M        4865.00000                    :Total Depth (Logger)
TDD     .M        4865.00000                    :Total Depth (Driller)   
UBID    .         8971                          :Unique Borehole Id  
PDAT    .         Mean Sea Level                :Permanent Datum 
EPD     .M           0.00000                    :Elevation of Permanent Datum (PDAT) above Mean Sea Level
LMF     .         Rotary Table                  :Logging Measured From (Name of Logging Elevation Reference) 
APD     .M          42.00000                    :Elevation of Depth Reference (LMF) Above Permanent Datum
~Curve Information
#MNEM   .UNITS    API CODE                       CURVE DESCRIPTION
#----   ------    --------                       -----------------
DEPT    .M                                      :1     Index curve
GR      .GAPI                                   :2     L06-07
DT      .US/F                                   :3     L06-07
RHOB    .G/C3                                   :4     L06-07
DRHO    .G/C3                                   :5     L06-07
NPHI    .V/V                                    :6     L06-07
~Ascii Log Data
# ...
    4723.3006    103.020325     74.084427      2.738879      0.002388   -999.250000
    4723.4006    103.164520     74.304031      2.737460      0.002033   -999.250000
    4723.5006    105.871063     74.480438      2.721850     -0.001773   -999.250000
    4723.6006    110.367157     74.595703      2.705075     -0.006343   -999.250000
    4723.7006    114.202789     74.706924      2.701116     -0.009273   -999.250000
    4723.8006    115.527176     74.864914      2.705666     -0.010442   -999.250000
    4723.9006    113.724686     75.102631      2.713249     -0.010474   -999.250000
    4724.0006    110.004669     75.409500      2.721912     -0.009314   -999.250000
    4724.1006    108.533295     75.789200      2.730805     -0.006466   -999.250000
    4724.2006    111.639160     76.229599      2.739336     -0.001889   -999.250000
    4724.3006    116.419388     76.699371      2.744368      0.002817   -999.250000
    4724.4006    119.019531     77.177292      2.740765      0.004997   -999.250000
    4724.5006    118.703079     77.641541      2.728487      0.003714   -999.250000
    4724.6006    116.795593     78.074982      2.715130      0.001109   -999.250000
    4724.7006    115.307434     78.449020      2.706203     -0.000892   -999.250000
    4724.8006    115.758682     78.720551      2.701680     -0.002136   -999.250000
    4724.9006    117.681641     78.862473      2.703281     -0.003004   -999.250000
    4725.0006    119.061554     78.854919      2.711753     -0.003848   -999.250000
    4725.1006    118.525970     78.704437      2.721729     -0.005291   -999.250000
    4725.2006    116.141052     78.423553      2.728862     -0.007728   -999.250000
    4725.3006    112.603729     78.052414      2.736245     -0.010335   -999.250000
    4725.4006    109.086151     77.667221      2.748534     -0.011065   -999.250000
    4725.5006    106.930847     77.335938      2.761388     -0.008514   -999.250000
    4725.6006    107.323853     77.140457      2.766693     -0.004054   -999.250000
    4725.7006    110.279053     77.142548      2.762382     -0.001473   -999.250000
    4725.8006    113.982773     77.356522      2.753226     -0.003314   -999.250000
    4725.9006    116.429916     77.769928      2.746663     -0.008487   -999.250000
    4726.0006    118.220657     78.395157      2.747524     -0.013549   -999.250000
    4726.1006    121.342941     79.210480   -999.250000   -999.250000   -999.250000
    4726.2006    125.480850     80.140167   -999.250000   -999.250000   -999.250000
    4726.3006    128.488708     81.122360   -999.250000   -999.250000   -999.250000
    4726.4006    129.891602     82.095673   -999.250000   -999.250000   -999.250000
    4726.5006    131.062012     83.018936   -999.250000   -999.250000   -999.250000
    4726.6006    132.724823     83.861526   -999.250000   -999.250000   -999.250000
    4726.7006    134.088257     84.621780   -999.250000   -999.250000   -999.250000
    4726.8006    134.088837     85.316849   -999.250000   -999.250000   -999.250000
    4726.9006    132.938599     85.919312   -999.250000   -999.250000   -999.250000
    4727.0006    131.956024     86.390945   -999.250000   -999.250000   -999.250000
    4727.1006    132.057129     86.694611   -999.250000   -999.250000   -999.250000
    4727.2006    133.091370     86.785843   -999.250000   -999.250000   -999.250000
    4727.3006    134.108246     86.668015   -999.250000   -999.250000   -999.250000
    4727.4006    133.508942     86.390228   -999.250000   -999.250000   -999.250000
    4727.5006    130.168060     86.018707   -999.250000   -999.250000   -999.250000
    4727.6006    125.351196     85.657089   -999.250000   -999.250000   -999.250000
    4727.7006    122.592178     85.426025   -999.250000   -999.250000   -999.250000
    4727.8006    124.371765     85.413498   -999.250000   -999.250000   -999.250000
    4727.9006    129.773102     85.624756   -999.250000   -999.250000   -999.250000
    4728.0006    135.657043     86.032181   -999.250000   -999.250000   -999.250000
    4728.1006    139.712006     86.588791   -999.250000   -999.250000   -999.250000
    4728.2006    141.649536     87.259079   -999.250000   -999.250000   -999.250000
    4728.3006    141.581879     87.998169   -999.250000   -999.250000   -999.250000
    4728.4006    139.703125     88.707596   -999.250000   -999.250000   -999.250000
    4728.5006    136.640900     89.309845   -999.250000   -999.250000   -999.250000
    4728.6006    133.830261     89.719070   -999.250000   -999.250000   -999.250000
    4728.7006    132.762024     89.994446   -999.250000   -999.250000   -999.250000
    4728.8006    134.516602     90.222427   -999.250000   -999.250000   -999.250000
    4728.9006    138.674438     90.451080   -999.250000   -999.250000   -999.250000
    4729.0006    142.804474     90.715958   -999.250000   -999.250000   -999.250000
    4729.1006    143.349670     91.007446   -999.250000   -999.250000   -999.250000
    4729.2006    139.139709     91.279907   -999.250000   -999.250000   -999.250000
    4729.3006    134.238342     91.521729   -999.250000   -999.250000   -999.250000
    4729.4006    133.634552     91.716995   -999.250000   -999.250000   -999.250000
    4729.5006    135.967682     91.843292   -999.250000   -999.250000   -999.250000
    4729.6006    135.440582     91.894302   -999.250000   -999.250000   -999.250000
    4729.7006    132.283813     91.845734   -999.250000   -999.250000   -999.250000
    4729.8006    131.861816     91.623672   -999.250000   -999.250000   -999.250000
    4729.9006    135.727539     91.270264   -999.250000   -999.250000   -999.250000
    4730.0006    139.541840     90.807556   -999.250000   -999.250000   -999.250000
    4730.1006    140.057922     90.262466   -999.250000   -999.250000   -999.250000
    4730.2006    137.874268     89.699890   -999.250000   -999.250000   -999.250000
    4730.3006    135.756714     89.167847   -999.250000   -999.250000   -999.250000
    4730.4006    135.118225     88.686401   -999.250000   -999.250000   -999.250000
    4730.5006    135.773926     88.257309   -999.250000   -999.250000   -999.250000
    4730.6006    136.063812     87.885223   -999.250000   -999.250000   -999.250000
    4730.7006    134.347382     87.567047   -999.250000   -999.250000   -999.250000
    4730.8006    133.240295     87.286789   -999.250000   -999.250000   -999.250000
    4730.9006    135.766266     87.002151   -999.250000   -999.250000   -999.250000
    4731.0006    138.488281     86.670563   -999.250000   -999.250000   -999.250000
    4731.1006    137.333618     86.286530   -999.250000   -999.250000   -999.250000
    4731.2006    133.120972     85.579300   -999.250000   -999.250000   -999.250000
    4731.3006    130.214203     84.797455   -999.250000   -999.250000   -999.250000
    4731.4006    128.036987     83.929871   -999.250000   -999.250000   -999.250000
    4731.5006    122.843414     83.045471   -999.250000   -999.250000   -999.250000
    4731.6006    115.123215     82.358459   -999.250000   -999.250000   -999.250000
    4731.7006    109.365509     82.019684   -999.250000   -999.250000   -999.250000
    4731.8006    109.209091     81.842712   -999.250000   -999.250000   -999.250000
    4731.9006    113.818146     81.874588   -999.250000   -999.250000   -999.250000
    4732.0006    119.652039     82.287872   -999.250000   -999.250000   -999.250000
    4732.1006    122.463913     82.951920   -999.250000   -999.250000   -999.250000
    4732.2006    122.914856     83.735489   -999.250000   -999.250000   -999.250000
    4732.3006    125.104050     84.563553   -999.250000   -999.250000   -999.250000
    4732.4006    126.661194     85.278687   -999.250000   -999.250000   -999.250000
    4732.5006    123.812653     85.908936   -999.250000   -999.250000   -999.250000
    4732.6006    120.318939     86.297653   -999.250000   -999.250000   -999.250000
    4732.7006    120.735168     86.421417   -999.250000   -999.250000   -999.250000
    4732.8006    123.824310     86.363815   -999.250000   -999.250000   -999.250000
