# LAS format data
~Version Information
VERS.     2.00: CWLS LOG ASCII STANDARD - VERSION 2.0
WRAP.       NO: ONE LINE PER DEPTH STEP
~Well Information
#MNEM   .UNITS    DATA                           DESCRIPTION
#----   ------    ----                           -----------
STRT    .M        0.1000                        :First Index Value
STOP    .M        4856.1008                     :Last Index Value
STEP    .M        -0.1000                       :Frame Spacing
NULL    .         -999.2500                     :Absent Value
WELL    .         L06-07                        :Well Name   
NAME	.         L06-07                        :Well Name   
FLD     .         L Block                       :Field Name  
CNTY    .                                       :County
STAT    .                                       :State
CTRY    .                                       :Country
LOC     .                                       :Location
API     .                                       :API Number
UWI     .         L06-07                        :UWI Number
DATE    .                                       :Date
COMP    .                                       :Company
SRVC    .                                       :Service Company
LATI    .DEG	53.706549                         :LATITUDE 
LONG    .DEG	4.898703                          :LONGITUDE 
~Parameter Information
#MNEM   .UNITS    VALUE                          DESCRIPTION
#----   ------    -----                          -----------
TDL     .M        4865.00000                    :Total Depth (Logger)
TDD     .M        4865.00000                    :Total Depth (Driller)   
UBID    .         8971                          :Unique Borehole Id  
PDAT    .         Mean Sea Level                :Permanent Datum 
EPD     .M           0.00000                    :Elevation of Permanent Datum (PDAT) above Mean Sea Level
LMF     .         Rotary Table                  :Logging Measured From (Name of Logging Elevation Reference) 
APD     .M          42.00000                    :Elevation of Depth Reference (LMF) Above Permanent Datum
~Curve Information
#MNEM   .UNITS    API CODE                       CURVE DESCRIPTION
#----   ------    --------                       -----------------
DEPT    .M                                      :1     Index curve
GR      .GAPI                                   :2     L06-07
DT      .US/F                                   :3     L06-07
RHOB    .G/C3                                   :4     L06-07
DRHO    .G/C3                                   :5     L06-07
NPHI    .V/V                                    :6     L06-07
~Ascii Log Data
# ...
    4646.5000    105.922165     77.341278      2.726804      0.000743      0.177612
    4646.6000     95.564270     76.607239      2.735174     -0.000385      0.180548
    4646.7000     91.208969     75.903870      2.736476     -0.002708      0.163835
    4646.8000     94.161713     75.244873      2.732611     -0.005247      0.149541
    4646.9000    102.057404     74.745316      2.725715     -0.007743      0.152487
    4647.0000    111.349899     74.382645      2.719452     -0.009387      0.160174
    4647.1000    116.934967     74.264481      2.717979     -0.009742      0.180167
    4647.2000    116.597397     74.315582      2.717622     -0.009093      0.190466
    4647.3000    113.061325     74.464096      2.711418     -0.008518      0.195639
    4647.4000    109.491089     74.762527      2.699921     -0.008420      0.180907
    4647.5000    105.132370     75.106491      2.694871     -0.007197      0.159287
    4647.6000    102.370346     75.506714      2.698675     -0.005086      0.155321
    4647.7000    106.110168     76.061356      2.703642     -0.004116      0.172104
    4647.8000    114.912674     76.826035      2.703115     -0.004682      0.183060
    4647.9000    124.863235     77.790085      2.703317     -0.005245      0.185884
    4648.0000    132.475800     79.039062      2.708707     -0.003840      0.198718
    4648.1000    135.692230     80.236557      2.713246     -0.002390      0.211982
    4648.2000    134.576019     81.370804      2.711672     -0.003028      0.226260
    4648.3000    132.630432     82.200531      2.710116     -0.004132      0.235105
    4648.4000    131.906799     82.754745      2.713087     -0.004186      0.235800
    4648.5000    131.228424     82.989594      2.710975     -0.004495      0.232404
    4648.6000    128.876251     82.856674      2.702030     -0.005908      0.220193
    4648.7000    124.436020     82.556946      2.694088     -0.006957      0.208052
    4648.8000    120.251602     82.095581      2.694074     -0.006944      0.203207
    4648.9000    119.433182     81.436279      2.697335     -0.006553      0.187945
    4649.0000    121.512100     80.557495      2.699131     -0.007112      0.136616
    4649.1000    121.459305     79.404785      2.698440     -0.008684      0.107114
    4649.2000    116.807114     78.066071      2.699614     -0.010096      0.109021
    4649.3000    108.568069     76.593262      2.706477     -0.010284      0.111297
    4649.4000     99.775711     75.066299      2.716288     -0.009906      0.105224
    4649.5000     92.293533     73.560379      2.721599     -0.010035      0.097734
    4649.6000     87.246765     72.157043      2.724234     -0.010117      0.092939
    4649.7000     86.265366     71.077011      2.729569     -0.009331      0.093325
    4649.8000     88.503555     70.355301      2.734046     -0.008362      0.104987
    4649.9000     92.115829     70.111359      2.730999     -0.008453      0.131206
    4650.0000     96.688889     70.468689      2.720290     -0.009180      0.159251
    4650.1000    102.020950     71.242401      2.710218     -0.009482      0.176995
    4650.2000    106.195572     72.343750      2.706687     -0.008982      0.183730
    4650.3000    108.900589     73.631805      2.707285     -0.008200      0.176917
    4650.4000    112.478958     74.994980      2.704850     -0.008081      0.161299
    4650.5000    117.559189     76.352325      2.698321     -0.008866      0.151021
    4650.6000    122.288956     77.617233      2.693459     -0.009530      0.154575
    4650.7000    125.695755     78.713455      2.696663     -0.008914      0.169390
    4650.8000    128.098053     79.573181      2.707520     -0.006476      0.187543
    4650.9000    128.469940     80.170212      2.722071     -0.002486      0.194081
    4651.0000    126.126221     80.428864      2.734507      0.001636      0.187024
    4651.1000    123.321838     80.300873      2.738625      0.003641      0.179792
    4651.2000    121.663208     79.882599      2.733627      0.002942      0.177327
    4651.3008    119.974365     79.275330      2.724950      0.001336      0.174979
    4651.4008    117.390884     78.568817      2.719520      0.001084      0.172938
    4651.5008    114.938278     77.839310      2.719282      0.002601      0.174233
    4651.6008    113.118042     77.159744      2.721614      0.004346      0.177115
    4651.7008    111.139496     76.575287      2.722230      0.004391      0.177966
    4651.8008    108.897949     76.132812      2.719731      0.002372      0.178244
    4651.9008    107.552353     75.885437      2.717168      0.000032      0.179853
    4652.0008    108.329803     75.851990      2.718829     -0.000758      0.181160
    4652.1008    111.168839     76.019882      2.723835      0.000021      0.181749
    4652.2008    114.500671     76.364014      2.724835      0.000609      0.183758
    4652.3008    117.523315     76.860580      2.718112     -0.000164      0.190081
    4652.4008    121.422363     77.468369      2.709393     -0.001627      0.202410
    4652.5008    126.726898     78.111328      2.705522     -0.002653      0.217481
    4652.6008    130.680145     78.676483      2.705751     -0.003293      0.227107
    4652.7008    130.309875     79.104050      2.704227     -0.004407      0.227499
    4652.8008    126.148911     79.392639      2.699422     -0.006055      0.222498
    4652.9008    121.256271     79.563461      2.695857     -0.007223      0.215346
    4653.0008    117.947449     79.648773      2.696954     -0.007140      0.206007
    4653.1008    117.310898     79.679428      2.701009     -0.005990      0.197312
    4653.2008    120.013443     79.697784      2.703857     -0.004537      0.192992
    4653.3008    125.220840     79.750534      2.703460     -0.003413      0.190699
    4653.4008    129.817322     79.861710      2.701520     -0.002811      0.187031
    4653.5008    131.396484     80.033676      2.700046     -0.002670      0.187631
    4653.6008    130.152832     80.255325      2.699366     -0.002842      0.199277
    4653.7008    127.540619     80.484253      2.699845     -0.003037      0.213282
    4653.8008    124.884354     80.640961      2.700042     -0.003425      0.216373
    4653.9008    123.755295     80.615479      2.695504     -0.004916      0.210128
    4654.0008    125.177078     80.345123      2.685905     -0.007896      0.197680
    4654.1008    127.791214     79.802246      2.677804     -0.011460      0.176356
    4654.2008    127.870285     78.972855      2.676358     -0.014215      0.159011
    4654.3008    122.564590     77.971008      2.679311     -0.015208      0.158840
    4654.4008    112.921631     76.936600      2.681897     -0.014429      0.164530
    4654.5008    102.851837     75.970917      2.682250     -0.012552      0.163312
    4654.6008     95.239380     75.113159      2.682439     -0.010334      0.156752
    4654.7008     90.352570     74.348465      2.685955     -0.008053      0.151817
    4654.8008     88.383224     73.708832      2.692856     -0.005723      0.150574
    4654.9008     90.488510     73.249817      2.699371     -0.003430      0.151524
    4655.0008     97.592850     73.068161      2.703843     -0.001257      0.148483
    4655.1008    108.104904     73.207214      2.705590      0.000162      0.143370
    4655.2008    117.863876     73.604950      2.700717     -0.000499      0.148917
    4655.3008    122.701050     74.155441      2.689710     -0.003211      0.169126
    4655.4008    122.699646     74.668793      2.681996     -0.005775      0.190759
    4655.5008    119.892075     75.020142      2.683657     -0.006524      0.194743
    4655.6008    115.438507     75.020294      2.690782     -0.005648      0.173658
    4655.7008    110.122284     74.663422      2.697795     -0.004272      0.159522
    4655.8008    104.774551     74.046997      2.704927     -0.002794      0.180663
    4655.9008    100.636475     73.432007      2.714443     -0.001036      0.217138
    4656.0008     97.545837     72.955643      2.724164      0.000365      0.222092
