# LAS format data
~Version Information
VERS.     2.00: CWLS LOG ASCII STANDARD - VERSION 2.0
WRAP.       NO: ONE LINE PER DEPTH STEP
~Well Information
#MNEM   .UNITS    DATA                           DESCRIPTION
#----   ------    ----                           -----------
STRT    .M        3928.0000                     :First Index Value
STOP    .M        64.9000                       :Last Index Value
STEP    .M        -0.1000                       :Frame Spacing
NULL    .         -999.2500                     :Absent Value
WELL    .         L07-01                        :Well Name
NAME	.         L07-01                        :Well Name   
FLD     .         UNKNOWN                       :Field Name  
CNTY    .                                       :County
STAT    .                                       :State
CTRY    .                                       :Country
LOC     .                                       :Location
API     .                                       :API Number
UWI     .         L07-01                        :UWI Number
DATE    .                                       :Date
COMP    .         PETROLAND                     :Company Name
SRVC    .                                       :Service Company
LATI    .DEG	53.722768                       :LATITUDE 
LONG    .DEG	4.796468                        :LONGITUDE 
~Parameter Information
#MNEM   .UNITS    VALUE                          DESCRIPTION
#----   ------    -----                          -----------
TDL     .M        3934.00000                    :Total Depth (Logger)
TDD     .M        3934.00000                    :Total Depth (Driller)   
UBID    .         7264                          :Unique Borehole Id  
PDAT    .         Mean Sea Level                :Permanent Datum 
EPD     .M           0.00000                    :Elevation of Permanent Datum (PDAT) above Mean Sea Level
LMF     .         Rotary Table                  :Logging Measured From (Name of Logging Elevation Reference) 
APD     .M          37.00000                    :Elevation of Depth Reference (LMF) Above Permanent Datum
EGL     .M         -36.00000                    :Elevation of Ground Level Above Mean Sea Level  
~Curve Information
#MNEM   .UNITS    API CODE                       CURVE DESCRIPTION
#----   ------    --------                       -----------------
DEPT    .M                                      :1     Index curve
GR      .GAPI                                   :2     L07-01
DT      .US/F                                   :3     L07-01
RHOB    .G/C3                                   :4     L07-01
NPHI    .V/V                                    :5     L07-01
~Ascii Log Data
# ...
    2042.0004     10.851171     61.272789   -999.250000   -999.250000
    2041.9004     10.598228     61.116280   -999.250000   -999.250000
    2041.8004     10.702963     61.137993   -999.250000   -999.250000
    2041.7004     10.863071     61.239365   -999.250000   -999.250000
    2041.6004     10.508734     61.487946   -999.250000   -999.250000
    2041.5004     10.139582     61.893501   -999.250000   -999.250000
    2041.4004      9.886377     62.271759   -999.250000   -999.250000
    2041.3004      9.942347     62.514633   -999.250000   -999.250000
    2041.2004     10.094843     62.615700   -999.250000   -999.250000
    2041.1004     10.311422     62.593719   -999.250000   -999.250000
    2041.0004     10.515112     62.456902   -999.250000   -999.250000
    2040.9004     10.632624     62.235931   -999.250000   -999.250000
    2040.8004     10.639750     62.028984   -999.250000   -999.250000
    2040.7004     10.632130     61.986809   -999.250000   -999.250000
    2040.6004     10.816366     62.224037   -999.250000   -999.250000
    2040.5004     11.225800     62.770103   -999.250000   -999.250000
    2040.4004     11.675137     63.417664   -999.250000   -999.250000
    2040.3004     12.073008     63.959846   -999.250000   -999.250000
    2040.2004     12.310379     64.304825   -999.250000   -999.250000
    2040.1004     12.337914     64.364685   -999.250000   -999.250000
    2040.0004     12.283886     64.083038   -999.250000   -999.250000
    2039.9004     12.226202     63.396828   -999.250000   -999.250000
    2039.8004     12.179119     62.408669   -999.250000   -999.250000
    2039.7004     12.086674     61.344025   -999.250000   -999.250000
    2039.6004     11.928461     60.455673   -999.250000   -999.250000
    2039.5004     11.736898     60.002434   -999.250000   -999.250000
    2039.4004     11.457420     60.156830   -999.250000   -999.250000
    2039.3004     11.101425     61.001770   -999.250000   -999.250000
    2039.2004     10.750343     62.445122   -999.250000   -999.250000
    2039.1004     10.385048     64.005295   -999.250000   -999.250000
    2039.0004     10.005676     65.040421   -999.250000   -999.250000
    2038.9004      9.639183     65.340164   -999.250000   -999.250000
    2038.8004      9.279062     65.097626   -999.250000   -999.250000
    2038.7004      8.973083     64.602188   -999.250000   -999.250000
    2038.6004      8.788176     64.133698   -999.250000   -999.250000
    2038.5004      8.833677     63.889381   -999.250000   -999.250000
    2038.4004      9.145113     63.881149   -999.250000   -999.250000
    2038.3004      9.676456     64.000290   -999.250000   -999.250000
    2038.2004     10.325684     64.135345   -999.250000   -999.250000
    2038.1004     11.002644     64.220566   -999.250000   -999.250000
    2038.0004     11.680180     64.239883   -999.250000   -999.250000
    2037.9004     11.898029     64.204956   -999.250000   -999.250000
    2037.8004     11.517410     64.143417   -999.250000   -999.250000
    2037.7004     10.902632     64.106247   -999.250000   -999.250000
    2037.6004     10.608324     64.149963   -999.250000   -999.250000
    2037.5004     10.726734     64.304245   -999.250000   -999.250000
    2037.4004     10.831331     64.556808   -999.250000   -999.250000
    2037.3000     10.628277     64.885803   -999.250000   -999.250000
    2037.2000     10.199001     65.257019   -999.250000   -999.250000
    2037.1000      9.833273     65.577545   -999.250000   -999.250000
    2037.0000      9.861032     65.735413   -999.250000   -999.250000
    2036.9000     10.206257     65.654449   -999.250000   -999.250000
    2036.8000     10.211390     65.326675   -999.250000   -999.250000
    2036.7000      9.946121     64.832504   -999.250000   -999.250000
    2036.6000      9.920973     64.321320   -999.250000   -999.250000
    2036.5000     10.086130     63.915245   -999.250000   -999.250000
    2036.4000     10.076359     63.676445   -999.250000   -999.250000
    2036.3000      9.701197     63.565529   -999.250000   -999.250000
    2036.2000      9.245668     63.466904   -999.250000   -999.250000
    2036.1000      8.990940     63.292984   -999.250000   -999.250000
    2036.0000      8.964994     63.069443   -999.250000   -999.250000
    2035.9000      9.267591     62.884094   -999.250000   -999.250000
    2035.8000      9.846045     62.788010   -999.250000   -999.250000
    2035.7000     10.430008     62.822823   -999.250000   -999.250000
    2035.6000     10.706856     63.080238   -999.250000   -999.250000
    2035.5000     10.722986     63.606117   -999.250000   -999.250000
    2035.4000     11.061388     64.312973   -999.250000   -999.250000
    2035.3000     11.682135     65.010620   -999.250000   -999.250000
    2035.2000     12.274494     65.443512   -999.250000   -999.250000
    2035.1000     12.659782     65.385529   -999.250000   -999.250000
    2035.0000     12.839666     64.841202   -999.250000   -999.250000
    2034.9000     12.768890     64.161499   -999.250000   -999.250000
    2034.8000     12.135220     63.741760   -999.250000   -999.250000
    2034.7000     11.182108     63.668228   -999.250000   -999.250000
    2034.6000     10.547655     63.788818   -999.250000   -999.250000
    2034.5000     10.128325     63.922050   -999.250000   -999.250000
    2034.4000      9.933966     63.921318   -999.250000   -999.250000
    2034.3000      9.902784     63.736588   -999.250000   -999.250000
    2034.2000     10.035828     63.402168   -999.250000   -999.250000
    2034.1000     10.379438     62.949524   -999.250000   -999.250000
    2034.0000     10.839840     62.436249   -999.250000   -999.250000
    2033.9000     11.083216     62.014641   -999.250000   -999.250000
    2033.8000     10.841518     61.788345   -999.250000   -999.250000
    2033.7000     10.162630     61.789543   -999.250000   -999.250000
    2033.6000      9.576849     62.091393   -999.250000   -999.250000
    2033.5000      9.414360     62.687698   -999.250000   -999.250000
    2033.4000      9.513771     63.122528   -999.250000   -999.250000
    2033.3000      9.768646     63.081390   -999.250000   -999.250000
    2033.2000     10.055073     62.737854   -999.250000   -999.250000
    2033.1000     10.011780     62.381378   -999.250000   -999.250000
    2033.0000      9.841427     62.279533   -999.250000   -999.250000
    2032.9000      9.784454     62.604057   -999.250000   -999.250000
    2032.8000     10.026649     63.403519   -999.250000   -999.250000
    2032.7000     10.429298     64.299637   -999.250000   -999.250000
    2032.6000     10.834606     64.953156   -999.250000   -999.250000
    2032.5000     11.150587     65.124222   -999.250000   -999.250000
    2032.4000     11.296875     64.796432   -999.250000   -999.250000
    2032.3000     11.099064     64.082138   -999.250000   -999.250000
    2032.2000     10.983934     63.379967   -999.250000   -999.250000
    2032.1000     11.051685     62.989906   -999.250000   -999.250000
    2032.0000     11.530869     62.906471   -999.250000   -999.250000
    2031.9000     12.056156     63.007744   -999.250000   -999.250000
    2031.8000     12.433048     63.138672   -999.250000   -999.250000
    2031.7000     12.178120     63.235703   -999.250000   -999.250000
    2031.6000     11.823593     63.290894   -999.250000   -999.250000
    2031.5000     11.403933     63.318176   -999.250000   -999.250000
    2031.4000     11.061712     63.345657   -999.250000   -999.250000
    2031.3000     11.056589     63.397537   -999.250000   -999.250000
    2031.2000     11.417624     63.454781   -999.250000   -999.250000
    2031.1000     11.775005     63.512299   -999.250000   -999.250000
    2031.0000     12.118191     63.546638   -999.250000   -999.250000
    2030.9000     12.231621     63.501205   -999.250000   -999.250000
    2030.8000     11.819582     63.341553   -999.250000   -999.250000
    2030.7000     11.428610     63.088585   -999.250000   -999.250000
    2030.6000     11.271011     62.812279   -999.250000   -999.250000
