# LAS format data
~Version Information
VERS.     2.00: CWLS LOG ASCII STANDARD - VERSION 2.0
WRAP.       NO: ONE LINE PER DEPTH STEP
~Well Information
#MNEM   .UNITS    DATA                           DESCRIPTION
#----   ------    ----                           -----------
STRT    .M        3928.0000                     :First Index Value
STOP    .M        64.9000                       :Last Index Value
STEP    .M        -0.1000                       :Frame Spacing
NULL    .         -999.2500                     :Absent Value
WELL    .         L07-01                        :Well Name
NAME	.         L07-01                        :Well Name   
FLD     .         UNKNOWN                       :Field Name  
CNTY    .                                       :County
STAT    .                                       :State
CTRY    .                                       :Country
LOC     .                                       :Location
API     .                                       :API Number
UWI     .         L07-01                        :UWI Number
DATE    .                                       :Date
COMP    .         PETROLAND                     :Company Name
SRVC    .                                       :Service Company
LATI    .DEG	53.722768                       :LATITUDE 
LONG    .DEG	4.796468                        :LONGITUDE 
~Parameter Information
#MNEM   .UNITS    VALUE                          DESCRIPTION
#----   ------    -----                          -----------
TDL     .M        3934.00000                    :Total Depth (Logger)
TDD     .M        3934.00000                    :Total Depth (Driller)   
UBID    .         7264                          :Unique Borehole Id  
PDAT    .         Mean Sea Level                :Permanent Datum 
EPD     .M           0.00000                    :Elevation of Permanent Datum (PDAT) above Mean Sea Level
LMF     .         Rotary Table                  :Logging Measured From (Name of Logging Elevation Reference) 
APD     .M          37.00000                    :Elevation of Depth Reference (LMF) Above Permanent Datum
EGL     .M         -36.00000                    :Elevation of Ground Level Above Mean Sea Level  
~Curve Information
#MNEM   .UNITS    API CODE                       CURVE DESCRIPTION
#----   ------    --------                       -----------------
DEPT    .M                                      :1     Index curve
GR      .GAPI                                   :2     L07-01
DT      .US/F                                   :3     L07-01
RHOB    .G/C3                                   :4     L07-01
NPHI    .V/V                                    :5     L07-01
~Ascii Log Data
# ...
     374.5000     38.576035    174.414948   -999.250000   -999.250000
     374.4000     38.045044    177.115112   -999.250000   -999.250000
     374.3000     37.342941    179.834045   -999.250000   -999.250000
     374.2000     36.432915    182.274536   -999.250000   -999.250000
     374.1000     35.559395    184.149689   -999.250000   -999.250000
     374.0000     34.752525    185.135406   -999.250000   -999.250000
     373.9000     34.042862    185.011078   -999.250000   -999.250000
     373.8000     33.638565    183.725464   -999.250000   -999.250000
     373.7000     33.507133    181.654083   -999.250000   -999.250000
     373.6000     33.454887    179.566040   -999.250000   -999.250000
     373.5000     33.429451    178.236938   -999.250000   -999.250000
     373.4000     33.441864    177.969086   -999.250000   -999.250000
     373.3000     33.421967    178.685638   -999.250000   -999.250000
     373.2000     33.168304    180.059082   -999.250000   -999.250000
     373.1000     32.828674    181.545502   -999.250000   -999.250000
     373.0000     32.551033    182.578003   -999.250000   -999.250000
     372.9000     31.991238    182.734253   -999.250000   -999.250000
     372.8000     31.378292    181.830658   -999.250000   -999.250000
     372.7000     31.167397    179.851685   -999.250000   -999.250000
     372.6000     31.431744    176.935669   -999.250000   -999.250000
     372.5000     32.397324    173.609344   -999.250000   -999.250000
     372.4000     34.206841    170.603485   -999.250000   -999.250000
     372.3000     37.047623    168.388062   -999.250000   -999.250000
     372.2000     40.738808    167.169739   -999.250000   -999.250000
     372.1000     44.688065    166.975128   -999.250000   -999.250000
     372.0000     48.115662    167.642975   -999.250000   -999.250000
     371.9000     50.601433    168.815399   -999.250000   -999.250000
     371.8000     52.261086    170.075317   -999.250000   -999.250000
     371.7000     52.609169    171.129791   -999.250000   -999.250000
     371.6000     51.556992    171.798828   -999.250000   -999.250000
     371.5000     49.698112    172.051147   -999.250000   -999.250000
     371.4000     47.553665    171.966766   -999.250000   -999.250000
     371.3000     45.467964    171.698212   -999.250000   -999.250000
     371.2000     43.357414    171.434479   -999.250000   -999.250000
     371.1000     40.932861    171.358215   -999.250000   -999.250000
     371.0000     38.540283    171.549805   -999.250000   -999.250000
     370.9000     37.064758    171.881378   -999.250000   -999.250000
     370.8000     36.450752    172.029877   -999.250000   -999.250000
     370.7000     36.105774    171.835297   -999.250000   -999.250000
     370.6000     35.882301    171.757874   -999.250000   -999.250000
     370.5000     35.761955    172.506226   -999.250000   -999.250000
     370.4000     35.774925    174.372223   -999.250000   -999.250000
     370.3000     36.123474    177.112183   -999.250000   -999.250000
     370.2000     36.344162    179.673187   -999.250000   -999.250000
     370.1000     35.718018    180.884491   -999.250000   -999.250000
     370.0000     34.576462    180.484100   -999.250000   -999.250000
     369.9000     33.692482    179.624847   -999.250000   -999.250000
     369.8000     33.980087    179.599915   -999.250000   -999.250000
     369.7000     35.309563    180.454041   -999.250000   -999.250000
     369.6000     37.495110    181.261475   -999.250000   -999.250000
     369.5000     39.836708    180.756714   -999.250000   -999.250000
     369.4000     42.194481    178.624481   -999.250000   -999.250000
     369.3000     44.711143    174.935028   -999.250000   -999.250000
     369.2000     47.697929    170.118500   -999.250000   -999.250000
     369.1000     50.425278    166.103851   -999.250000   -999.250000
     369.0000     52.183273    164.272125   -999.250000   -999.250000
     368.9000     53.444527    164.992798   -999.250000   -999.250000
     368.8000     54.012459    167.276825   -999.250000   -999.250000
     368.7000     53.624130    169.939728   -999.250000   -999.250000
     368.6000     53.449791    171.982910   -999.250000   -999.250000
     368.5000     53.533875    172.334473   -999.250000   -999.250000
     368.4000     53.683891    171.650146   -999.250000   -999.250000
     368.3000     52.707245    169.131836   -999.250000   -999.250000
     368.2000     51.066063    164.590302   -999.250000   -999.250000
     368.1000     49.845779    158.601349   -999.250000   -999.250000
     368.0000     48.837364    150.930420   -999.250000   -999.250000
     367.9000     48.251205    141.167755   -999.250000   -999.250000
     367.8000     48.388855    130.054260   -999.250000   -999.250000
     367.7000     48.217133    122.523712   -999.250000   -999.250000
     367.6000     47.264145    120.692139   -999.250000   -999.250000
     367.5000     45.020615    121.790955   -999.250000   -999.250000
     367.4000     43.130028    122.502075   -999.250000   -999.250000
     367.3000     42.177811    121.008850   -999.250000   -999.250000
     367.2000     42.623688    117.703323   -999.250000   -999.250000
     367.1000     43.405449    112.691895   -999.250000   -999.250000
     367.0000     44.306450    108.630569   -999.250000   -999.250000
     366.9000     45.179985    107.510483   -999.250000   -999.250000
     366.8000     46.171249    107.528458   -999.250000   -999.250000
     366.7000     47.286812    107.791641   -999.250000   -999.250000
     366.6000     48.355461    108.124573   -999.250000   -999.250000
     366.5000     49.854630    108.436752   -999.250000   -999.250000
     366.4000     52.050148    108.643326   -999.250000   -999.250000
     366.3000     54.094803    108.757797   -999.250000   -999.250000
     366.2000     55.221916    108.821899   -999.250000   -999.250000
     366.1000     54.442825    108.823593   -999.250000   -999.250000
     366.0000     52.854301    108.758423   -999.250000   -999.250000
     365.9000     50.762856    108.531998   -999.250000   -999.250000
     365.8000     48.387505    108.077713   -999.250000   -999.250000
     365.7000     45.995659    107.390427   -999.250000   -999.250000
     365.6000     44.018532    106.572327   -999.250000   -999.250000
     365.5000     43.134239    105.905426   -999.250000   -999.250000
     365.4000     43.185379    105.616348   -999.250000   -999.250000
     365.3000     43.685738    105.545120   -999.250000   -999.250000
     365.2000     43.869492    105.543976   -999.250000   -999.250000
     365.1000     43.766777    105.360321   -999.250000   -999.250000
     365.0000     43.060974    104.815857   -999.250000   -999.250000
     364.9000     41.810936    104.447403   -999.250000   -999.250000
     364.8000     41.152092    104.784286   -999.250000   -999.250000
     364.7000     41.199287    105.557175   -999.250000   -999.250000
     364.6000     41.591812    105.872025   -999.250000   -999.250000
     364.5000     41.978539    105.086777   -999.250000   -999.250000
     364.4000     41.626587    104.134750   -999.250000   -999.250000
     364.3000     40.409370    104.049622   -999.250000   -999.250000
     364.2000     39.786232    104.812714   -999.250000   -999.250000
     364.1000     39.985817    105.487976   -999.250000   -999.250000
     364.0000     40.378593    105.646820   -999.250000   -999.250000
     363.9000     40.631027    105.504288   -999.250000   -999.250000
     363.8000     40.610611    105.083679   -999.250000   -999.250000
     363.7000     40.401436    104.545044   -999.250000   -999.250000
     363.6000     40.233391    104.200882   -999.250000   -999.250000
     363.5000     40.263603    104.304169   -999.250000   -999.250000
     363.4000     40.507988    105.005707   -999.250000   -999.250000
     363.3000     40.970474    106.186478   -999.250000   -999.250000
     363.2000     41.546440    107.301331   -999.250000   -999.250000
     363.1000     42.073997    107.917877   -999.250000   -999.250000
