# LAS format data
~Version Information
VERS.     2.00: CWLS LOG ASCII STANDARD - VERSION 2.0
WRAP.       NO: ONE LINE PER DEPTH STEP
~Well Information
#MNEM   .UNITS    DATA                           DESCRIPTION
#----   ------    ----                           -----------
STRT    .M        3928.0000                     :First Index Value
STOP    .M        64.9000                       :Last Index Value
STEP    .M        -0.1000                       :Frame Spacing
NULL    .         -999.2500                     :Absent Value
WELL    .         L07-01                        :Well Name
NAME	.         L07-01                        :Well Name   
FLD     .         UNKNOWN                       :Field Name  
CNTY    .                                       :County
STAT    .                                       :State
CTRY    .                                       :Country
LOC     .                                       :Location
API     .                                       :API Number
UWI     .         L07-01                        :UWI Number
DATE    .                                       :Date
COMP    .         PETROLAND                     :Company Name
SRVC    .                                       :Service Company
LATI    .DEG	53.722768                       :LATITUDE 
LONG    .DEG	4.796468                        :LONGITUDE 
~Parameter Information
#MNEM   .UNITS    VALUE                          DESCRIPTION
#----   ------    -----                          -----------
TDL     .M        3934.00000                    :Total Depth (Logger)
TDD     .M        3934.00000                    :Total Depth (Driller)   
UBID    .         7264                          :Unique Borehole Id  
PDAT    .         Mean Sea Level                :Permanent Datum 
EPD     .M           0.00000                    :Elevation of Permanent Datum (PDAT) above Mean Sea Level
LMF     .         Rotary Table                  :Logging Measured From (Name of Logging Elevation Reference) 
APD     .M          37.00000                    :Elevation of Depth Reference (LMF) Above Permanent Datum
EGL     .M         -36.00000                    :Elevation of Ground Level Above Mean Sea Level  
~Curve Information
#MNEM   .UNITS    API CODE                       CURVE DESCRIPTION
#----   ------    --------                       -----------------
DEPT    .M                                      :1     Index curve
GR      .GAPI                                   :2     L07-01
DT      .US/F                                   :3     L07-01
RHOB    .G/C3                                   :4     L07-01
NPHI    .V/V                                    :5     L07-01
~Ascii Log Data
# ...
    2743.5002     75.480743     78.149887   -999.250000   -999.250000
    2743.4002     73.597397     77.933807   -999.250000   -999.250000
    2743.3002     72.125381     77.681305   -999.250000   -999.250000
    2743.2002     71.449387     77.436813   -999.250000   -999.250000
    2743.1002     71.476578     77.220596   -999.250000   -999.250000
    2743.0002     71.729614     77.016068   -999.250000   -999.250000
    2742.9002     71.974243     76.780334   -999.250000   -999.250000
    2742.8002     72.092804     76.480316   -999.250000   -999.250000
    2742.7002     71.972748     76.144302   -999.250000   -999.250000
    2742.6002     71.951447     75.863037   -999.250000   -999.250000
    2742.5002     72.249146     75.719040   -999.250000   -999.250000
    2742.4002     72.527527     75.718338   -999.250000   -999.250000
    2742.3002     72.530624     75.820877   -999.250000   -999.250000
    2742.2002     72.503876     75.983200   -999.250000   -999.250000
    2742.1002     73.282196     76.159073   -999.250000   -999.250000
    2742.0002     74.791061     76.316956   -999.250000   -999.250000
    2741.9002     76.255005     76.431290   -999.250000   -999.250000
    2741.8002     77.583374     76.497589   -999.250000   -999.250000
    2741.7002     78.849152     76.533173   -999.250000   -999.250000
    2741.6002     80.099182     76.569901   -999.250000   -999.250000
    2741.5002     81.358047     76.640259   -999.250000   -999.250000
    2741.4002     82.584335     76.760056   -999.250000   -999.250000
    2741.3002     83.627106     76.909302   -999.250000   -999.250000
    2741.2002     84.178146     77.041092   -999.250000   -999.250000
    2741.1002     83.711380     77.100494   -999.250000   -999.250000
    2741.0002     82.200348     77.051682   -999.250000   -999.250000
    2740.9002     80.319977     76.895935   -999.250000   -999.250000
    2740.8002     78.680740     76.670410   -999.250000   -999.250000
    2740.7002     77.275299     76.463120   -999.250000   -999.250000
    2740.6002     76.360336     76.383011   -999.250000   -999.250000
    2740.5002     76.677887     76.517853   -999.250000   -999.250000
    2740.4002     78.453766     76.875870   -999.250000   -999.250000
    2740.3002     80.713898     77.351715   -999.250000   -999.250000
    2740.2002     81.492401     77.813553   -999.250000   -999.250000
    2740.1002     81.373657     78.223038   -999.250000   -999.250000
    2740.0002     80.488495     78.574234   -999.250000   -999.250000
    2739.9002     79.425354     78.808655   -999.250000   -999.250000
    2739.8002     78.544357     78.842697   -999.250000   -999.250000
    2739.7002     77.957443     78.726151   -999.250000   -999.250000
    2739.6002     77.622360     78.514404   -999.250000   -999.250000
    2739.5002     77.134674     78.274658   -999.250000   -999.250000
    2739.4002     76.328857     78.125595   -999.250000   -999.250000
    2739.3002     75.091782     78.091232   -999.250000   -999.250000
    2739.2002     73.709518     78.214127   -999.250000   -999.250000
    2739.1002     72.305023     78.514496   -999.250000   -999.250000
    2739.0002     71.128860     78.847534   -999.250000   -999.250000
    2738.9002     70.992752     79.135147   -999.250000   -999.250000
    2738.8002     72.270538     79.309204   -999.250000   -999.250000
    2738.7002     73.684448     79.331390   -999.250000   -999.250000
    2738.6002     75.072418     79.211990   -999.250000   -999.250000
    2738.5002     76.197678     79.020782   -999.250000   -999.250000
    2738.4002     76.628601     78.820526   -999.250000   -999.250000
    2738.3002     76.467224     78.610382   -999.250000   -999.250000
    2738.2002     75.628876     78.313721   -999.250000   -999.250000
    2738.1002     74.597610     77.934494   -999.250000   -999.250000
    2738.0002     73.627335     77.566452   -999.250000   -999.250000
    2737.9002     73.193802     77.281036   -999.250000   -999.250000
    2737.8002     73.796310     77.186584   -999.250000   -999.250000
    2737.7002     74.927658     77.276337   -999.250000   -999.250000
    2737.6002     75.994888     77.526932   -999.250000   -999.250000
    2737.5002     76.588577     77.837479   -999.250000   -999.250000
    2737.4002     76.847763     78.113434   -999.250000   -999.250000
    2737.3002     76.780655     78.264908   -999.250000   -999.250000
    2737.2002     75.912155     78.301697   -999.250000   -999.250000
    2737.1002     74.487625     78.314438   -999.250000   -999.250000
    2737.0002     73.076843     78.287689   -999.250000   -999.250000
    2736.9002     71.531555     78.172195   -999.250000   -999.250000
    2736.8002     69.972321     77.916443   -999.250000   -999.250000
    2736.7002     68.879852     77.442886   -999.250000   -999.250000
    2736.6002     68.391464     76.799728   -999.250000   -999.250000
    2736.5002     68.425415     76.145874   -999.250000   -999.250000
    2736.4002     68.559677     75.789490   -999.250000   -999.250000
    2736.3002     68.533279     75.816986   -999.250000   -999.250000
    2736.2002     68.331192     76.092728   -999.250000   -999.250000
    2736.1002     68.237503     76.451294   -999.250000   -999.250000
    2736.0002     68.671371     76.781143   -999.250000   -999.250000
    2735.9002     69.465134     77.023132   -999.250000   -999.250000
    2735.8002     69.921158     77.169922   -999.250000   -999.250000
    2735.7002     69.963943     77.233521   -999.250000   -999.250000
    2735.6002     69.711151     77.209076   -999.250000   -999.250000
    2735.5002     69.514633     77.122040   -999.250000   -999.250000
    2735.4002     69.417603     77.031189   -999.250000   -999.250000
    2735.3002     69.494736     76.998871   -999.250000   -999.250000
    2735.2002     69.653290     77.058502   -999.250000   -999.250000
    2735.1002     69.245804     77.201309   -999.250000   -999.250000
    2735.0002     68.670258     77.370163   -999.250000   -999.250000
    2734.9002     69.074707     77.451492   -999.250000   -999.250000
    2734.8002     70.737167     77.351547   -999.250000   -999.250000
    2734.7002     72.987045     77.063599   -999.250000   -999.250000
    2734.6002     74.798508     76.679749   -999.250000   -999.250000
    2734.5002     76.487534     76.348465   -999.250000   -999.250000
    2734.4002     78.173401     76.169128   -999.250000   -999.250000
    2734.3002     79.487885     76.225052   -999.250000   -999.250000
    2734.2002     80.581894     76.617401   -999.250000   -999.250000
    2734.1002     81.441193     77.244141   -999.250000   -999.250000
    2734.0002     81.783722     77.813339   -999.250000   -999.250000
    2733.9002     81.504639     78.142487   -999.250000   -999.250000
    2733.8002     80.889008     78.277740   -999.250000   -999.250000
    2733.7002     80.295151     78.364960   -999.250000   -999.250000
    2733.6002     80.167252     78.484406   -999.250000   -999.250000
    2733.5002     80.349304     78.582932   -999.250000   -999.250000
    2733.4002     80.223038     78.573090   -999.250000   -999.250000
    2733.3002     79.616028     78.419434   -999.250000   -999.250000
    2733.2002     78.710388     78.179733   -999.250000   -999.250000
    2733.1002     77.600128     77.970642   -999.250000   -999.250000
    2733.0002     76.458008     77.855270   -999.250000   -999.250000
    2732.9002     75.901825     77.808807   -999.250000   -999.250000
    2732.8002     76.920929     77.780502   -999.250000   -999.250000
    2732.7002     80.794418     77.745987   -999.250000   -999.250000
    2732.6002     86.911926     77.709732   -999.250000   -999.250000
    2732.5002     92.934235     77.692596   -999.250000   -999.250000
    2732.4002     96.943787     77.717102   -999.250000   -999.250000
    2732.3002     98.994583     77.790146   -999.250000   -999.250000
    2732.2002     99.929764     77.897217   -999.250000   -999.250000
    2732.1002     99.258011     78.005432   -999.250000   -999.250000
