# LAS format data
~Version Information
VERS.     2.00: CWLS LOG ASCII STANDARD - VERSION 2.0
WRAP.       NO: ONE LINE PER DEPTH STEP
~Well Information
#MNEM   .UNITS    DATA                           DESCRIPTION
#----   ------    ----                           -----------
STRT    .M        0.1000                        :First Index Value
STOP    .M        4856.1008                     :Last Index Value
STEP    .M        -0.1000                       :Frame Spacing
NULL    .         -999.2500                     :Absent Value
WELL    .         L06-07                        :Well Name   
NAME	.         L06-07                        :Well Name   
FLD     .         L Block                       :Field Name  
CNTY    .                                       :County
STAT    .                                       :State
CTRY    .                                       :Country
LOC     .                                       :Location
API     .                                       :API Number
UWI     .         L06-07                        :UWI Number
DATE    .                                       :Date
COMP    .                                       :Company
SRVC    .                                       :Service Company
LATI    .DEG	53.706549                         :LATITUDE 
LONG    .DEG	4.898703                          :LONGITUDE 
~Parameter Information
#MNEM   .UNITS    VALUE                          DESCRIPTION
#----   ------    -----                          -----------
TDL     .M        4865.00000                    :Total Depth (Logger)
TDD     .M        4865.00000                    :Total Depth (Driller)   
UBID    .         8971                          :Unique Borehole Id  
PDAT    .         Mean Sea Level                :Permanent Datum 
EPD     .M           0.00000                    :Elevation of Permanent Datum (PDAT) above Mean Sea Level
LMF     .         Rotary Table                  :Logging Measured From (Name of Logging Elevation Reference) 
APD     .M          42.00000                    :Elevation of Depth Reference (LMF) Above Permanent Datum
~Curve Information
#MNEM   .UNITS    API CODE                       CURVE DESCRIPTION
#----   ------    --------                       -----------------
DEPT    .M                                      :1     Index curve
GR      .GAPI                                   :2     L06-07
DT      .US/F                                   :3     L06-07
RHOB    .G/C3                                   :4     L06-07
DRHO    .G/C3                                   :5     L06-07
NPHI    .V/V                                    :6     L06-07
~Ascii Log Data
# ...
    4348.9004     65.410522     80.613632   -999.250000   -999.250000   -999.250000
    4349.0004     64.602493     80.777176   -999.250000   -999.250000   -999.250000
    4349.1004     61.523727     80.784592   -999.250000   -999.250000   -999.250000
    4349.2004     57.474037     80.664658   -999.250000   -999.250000   -999.250000
    4349.3004     54.095184     80.513107   -999.250000   -999.250000   -999.250000
    4349.4004     51.581924     80.399933   -999.250000   -999.250000   -999.250000
    4349.5004     49.918419     80.415649   -999.250000   -999.250000   -999.250000
    4349.6004     49.721565     80.726837   -999.250000   -999.250000   -999.250000
    4349.7004     51.073273     81.475204   -999.250000   -999.250000   -999.250000
    4349.8004     54.085159     82.468323   -999.250000   -999.250000   -999.250000
    4349.9004     59.611214     83.466476   -999.250000   -999.250000   -999.250000
    4350.0004     67.172195     84.431870   -999.250000   -999.250000   -999.250000
    4350.1004     74.197571     85.266785   -999.250000   -999.250000   -999.250000
    4350.2004     79.212158     85.743881   -999.250000   -999.250000   -999.250000
    4350.3004     82.475571     85.941101      2.582348   -999.250000      0.296724
    4350.4004     84.565048     85.879684      2.614156   -999.250000      0.290517
    4350.5004     85.998734     85.311981      2.636557     -0.041042      0.280044
    4350.6004     86.786438     84.502136      2.646974     -0.035634      0.259280
    4350.7004     85.287735     83.539520      2.652029     -0.032837      0.226230
    4350.8004     80.209030     82.314056      2.658117     -0.027694      0.212650
    4350.9004     74.117355     81.268677      2.667103     -0.019821      0.225160
    4351.0004     70.450989     80.569382      2.673338     -0.010934      0.253455
    4351.1004     70.973877     80.167511      2.670938     -0.004293      0.266042
    4351.2004     74.095123     80.032639      2.662496     -0.000597      0.259126
    4351.3004     78.567490     80.251633      2.655862      0.000666      0.261521
    4351.4004     83.220657     80.808350      2.656889      0.000632      0.275570
    4351.5004     86.462341     81.572922      2.668258      0.001880      0.292494
    4351.6004     87.710327     82.501678      2.683239      0.004386      0.302188
    4351.7004     88.212204     83.308777      2.691386      0.006237      0.295804
    4351.8004     89.315231     84.031494      2.688435      0.004939      0.273270
    4351.9004     90.878082     84.639877      2.674558      0.001176      0.260693
    4352.0004     92.156754     84.966110      2.657692     -0.003101      0.257520
    4352.1004     92.761536     85.185623      2.648209     -0.005386      0.250512
    4352.2004     94.124603     85.554382      2.649237     -0.006004      0.255554
    4352.3004     98.534119     85.898956      2.656683     -0.006136      0.261832
    4352.4004    104.803940     86.216705      2.666119     -0.006576      0.239798
    4352.5004    109.379593     86.399170      2.672177     -0.006443      0.226011
    4352.6004    111.657623     86.608337      2.665149     -0.006990      0.229287
    4352.7004    112.368011     86.849411      2.647277     -0.008477      0.230515
    4352.8004    113.502335     87.161682      2.629862     -0.008230      0.228688
    4352.9004    114.864075     87.132050      2.621598     -0.007004      0.236476
    4353.0004    115.204666     86.750046      2.618653     -0.006327      0.252889
    4353.1004    114.581665     86.492447      2.621472     -0.006413      0.274215
    4353.2004    113.388214     86.134766      2.631184     -0.005952      0.248863
    4353.3004    111.327774     85.621399      2.638246     -0.005681      0.213793
    4353.4004    108.457687     85.068710      2.639246     -0.006907      0.198856
    4353.5004    106.685898     84.320633      2.638015     -0.008370      0.193322
    4353.6004    105.620956     83.287735      2.643206     -0.007748      0.181421
    4353.7004    102.544861     82.148087      2.655306     -0.003931      0.176636
    4353.8004     96.891541     81.062744      2.666903      0.000461      0.173602
    4353.9004     91.498749     80.143372      2.669153      0.002856      0.175608
    4354.0004     88.656235     79.512817      2.665907      0.002341      0.186485
    4354.1004     88.835754     79.184906      2.661306     -0.000142      0.190936
    4354.2004     91.805191     79.226959      2.653636     -0.003968      0.201341
    4354.3004     97.108307     79.561737      2.644210     -0.007692      0.214580
    4354.4004    103.236359     80.107910      2.638877     -0.008949      0.220847
    4354.5004    108.841019     80.816437      2.640491     -0.007493      0.215969
    4354.6004    112.559647     81.492416      2.644824     -0.005013      0.208196
    4354.7004    113.105865     82.023788      2.647596     -0.003511      0.206715
    4354.8004    109.511826     82.319427      2.646811     -0.003064      0.211204
    4354.9004    102.052811     82.390625      2.643107     -0.003056      0.209613
    4355.0004     92.896713     82.263916      2.637605     -0.003359      0.199836
    4355.1004     87.000137     82.036087      2.631457     -0.004335      0.195401
    4355.2004     87.723022     81.868866      2.626541     -0.006172      0.203425
    4355.3004     93.148911     81.831741      2.625589     -0.008180      0.226181
    4355.4004     99.299179     81.949997      2.631297     -0.008969      0.251746
    4355.5004    103.706070     82.259995      2.640966     -0.008115      0.261234
    4355.6004    105.784119     82.762650      2.646701     -0.006582      0.257129
    4355.7004    105.728699     83.350266      2.645681     -0.005409      0.249582
    4355.8004    104.963715     83.908798      2.642250     -0.004591      0.241735
    4355.9004    105.129410     84.348404      2.641905     -0.003619      0.236201
    4356.0004    106.414490     84.614044      2.644206     -0.002492      0.235495
    4356.1004    107.524780     84.630569      2.644785     -0.001975      0.233586
    4356.2004    107.218307     84.329208      2.641778     -0.002835      0.224898
    4356.3004    105.334030     83.737122      2.638175     -0.005055      0.214674
    4356.4004    102.200363     82.889984      2.636638     -0.007983      0.207992
    4356.5004     98.130539     81.805435      2.636593     -0.010804      0.201875
    4356.6004     93.985458     80.646118      2.636615     -0.012630      0.194507
    4356.7004     91.060593     79.735703      2.635648     -0.013054      0.186828
    4356.8004     90.339722     79.150253      2.632944     -0.012562      0.182339
    4356.9004     92.085648     78.647781      2.628970     -0.012245      0.185133
    4357.0004     95.324432     78.184326      2.626208     -0.012820      0.191086
    4357.1004     97.290237     77.796448      2.627901     -0.013950      0.192470
    4357.2004     95.588867     77.384247      2.634732     -0.014536      0.188587
    4357.3004     90.799164     76.917664      2.643998     -0.013748      0.182230
    4357.4004     85.523102     76.451401      2.652474     -0.011670      0.175944
    4357.5004     81.393265     76.026672      2.659745     -0.009059      0.173323
    4357.6004     79.048019     75.684875      2.664734     -0.007176      0.176909
    4357.7004     78.791519     75.434448      2.662580     -0.007273      0.182961
    4357.8004     80.452896     75.273026      2.651491     -0.009480      0.187277
    4357.9004     83.504120     75.212967      2.638155     -0.012428      0.192557
    4358.0004     87.392105     75.275024      2.630527     -0.014580      0.197851
    4358.1004     90.575058     75.475220      2.630204     -0.015364      0.197874
    4358.2004     91.145325     75.785507      2.632602     -0.015293      0.195130
    4358.3004     88.947556     76.147934      2.633987     -0.014985      0.189544
    4358.4004     86.295044     76.500427      2.634542     -0.014625      0.177741
