# LAS format data
~Version Information
VERS.     2.00: CWLS LOG ASCII STANDARD - VERSION 2.0
WRAP.       NO: ONE LINE PER DEPTH STEP
~Well Information
#MNEM   .UNITS    DATA                           DESCRIPTION
#----   ------    ----                           -----------
STRT    .M        3928.0000                     :First Index Value
STOP    .M        64.9000                       :Last Index Value
STEP    .M        -0.1000                       :Frame Spacing
NULL    .         -999.2500                     :Absent Value
WELL    .         L07-01                        :Well Name
NAME	.         L07-01                        :Well Name   
FLD     .         UNKNOWN                       :Field Name  
CNTY    .                                       :County
STAT    .                                       :State
CTRY    .                                       :Country
LOC     .                                       :Location
API     .                                       :API Number
UWI     .         L07-01                        :UWI Number
DATE    .                                       :Date
COMP    .         PETROLAND                     :Company Name
SRVC    .                                       :Service Company
LATI    .DEG	53.722768                       :LATITUDE 
LONG    .DEG	4.796468                        :LONGITUDE 
~Parameter Information
#MNEM   .UNITS    VALUE                          DESCRIPTION
#----   ------    -----                          -----------
TDL     .M        3934.00000                    :Total Depth (Logger)
TDD     .M        3934.00000                    :Total Depth (Driller)   
UBID    .         7264                          :Unique Borehole Id  
PDAT    .         Mean Sea Level                :Permanent Datum 
EPD     .M           0.00000                    :Elevation of Permanent Datum (PDAT) above Mean Sea Level
LMF     .         Rotary Table                  :Logging Measured From (Name of Logging Elevation Reference) 
APD     .M          37.00000                    :Elevation of Depth Reference (LMF) Above Permanent Datum
EGL     .M         -36.00000                    :Elevation of Ground Level Above Mean Sea Level  
~Curve Information
#MNEM   .UNITS    API CODE                       CURVE DESCRIPTION
#----   ------    --------                       -----------------
DEPT    .M                                      :1     Index curve
GR      .GAPI                                   :2     L07-01
DT      .US/F                                   :3     L07-01
RHOB    .G/C3                                   :4     L07-01
NPHI    .V/V                                    :5     L07-01
~Ascii Log Data
# ...
    2973.5002     78.875320     74.783890   -999.250000   -999.250000
    2973.4002     77.490250     74.945435   -999.250000   -999.250000
    2973.3002     76.125671     74.927368   -999.250000   -999.250000
    2973.2002     74.778107     74.809708   -999.250000   -999.250000
    2973.1002     73.549744     74.619476   -999.250000   -999.250000
    2973.0002     72.844086     74.359512   -999.250000   -999.250000
    2972.9002     72.878494     74.066528   -999.250000   -999.250000
    2972.8002     73.009186     73.751511   -999.250000   -999.250000
    2972.7002     72.997604     73.345795   -999.250000   -999.250000
    2972.6002     72.892944     72.756500   -999.250000   -999.250000
    2972.5002     73.183060     72.002838   -999.250000   -999.250000
    2972.4002     73.265823     71.288025   -999.250000   -999.250000
    2972.3002     72.794556     70.887604   -999.250000   -999.250000
    2972.2002     73.379593     70.958740   -999.250000   -999.250000
    2972.1002     74.807312     71.422119   -999.250000   -999.250000
    2972.0002     76.415192     71.981781   -999.250000   -999.250000
    2971.9002     77.784531     72.461014   -999.250000   -999.250000
    2971.8002     78.831818     72.748489   -999.250000   -999.250000
    2971.7002     79.502731     72.801102   -999.250000   -999.250000
    2971.6002     79.972748     72.609283   -999.250000   -999.250000
    2971.5002     80.318222     72.218887   -999.250000   -999.250000
    2971.4002     80.581573     71.808624   -999.250000   -999.250000
    2971.3002     79.969177     71.512070   -999.250000   -999.250000
    2971.2002     78.426453     71.384506   -999.250000   -999.250000
    2971.1002     76.748154     71.341385   -999.250000   -999.250000
    2971.0002     74.823532     71.387543   -999.250000   -999.250000
    2970.9002     72.726318     71.494568   -999.250000   -999.250000
    2970.8002     71.028702     71.655777   -999.250000   -999.250000
    2970.7002     70.535461     71.839478   -999.250000   -999.250000
    2970.6002     71.624390     71.985275   -999.250000   -999.250000
    2970.5002     72.788467     72.068588   -999.250000   -999.250000
    2970.4002     73.716827     72.158020   -999.250000   -999.250000
    2970.3002     74.334091     72.287064   -999.250000   -999.250000
    2970.2002     75.199066     72.438766   -999.250000   -999.250000
    2970.1002     75.847321     72.605560   -999.250000   -999.250000
    2970.0002     76.009552     72.891144   -999.250000   -999.250000
    2969.9002     76.429733     73.128036   -999.250000   -999.250000
    2969.8002     76.988113     73.185928   -999.250000   -999.250000
    2969.7002     77.634399     73.010269   -999.250000   -999.250000
    2969.6002     78.284348     72.655396   -999.250000   -999.250000
    2969.5002     78.617508     72.277298   -999.250000   -999.250000
    2969.4002     78.084717     72.110046   -999.250000   -999.250000
    2969.3002     77.089966     72.250381   -999.250000   -999.250000
    2969.2002     75.759262     72.635269   -999.250000   -999.250000
    2969.1002     74.382263     73.139847   -999.250000   -999.250000
    2969.0002     73.075424     73.603516   -999.250000   -999.250000
    2968.9002     72.194870     73.838715   -999.250000   -999.250000
    2968.8002     72.366745     73.714462   -999.250000   -999.250000
    2968.7002     72.613983     73.338745   -999.250000   -999.250000
    2968.6002     72.855759     72.950531   -999.250000   -999.250000
    2968.5002     72.955963     72.713608   -999.250000   -999.250000
    2968.4002     73.076141     72.632446   -999.250000   -999.250000
    2968.3002     73.195618     72.709335   -999.250000   -999.250000
    2968.2002     72.990005     72.922974   -999.250000   -999.250000
    2968.1002     71.789139     73.182724   -999.250000   -999.250000
    2968.0002     69.998413     73.338608   -999.250000   -999.250000
    2967.9002     68.897476     73.293762   -999.250000   -999.250000
    2967.8002     68.355377     73.119339   -999.250000   -999.250000
    2967.7002     69.243423     72.962494   -999.250000   -999.250000
    2967.6002     71.920181     72.892288   -999.250000   -999.250000
    2967.5002     74.474152     72.891159   -999.250000   -999.250000
    2967.4002     76.326569     72.958099   -999.250000   -999.250000
    2967.3002     78.118744     73.108063   -999.250000   -999.250000
    2967.2002     79.773819     73.311859   -999.250000   -999.250000
    2967.1002     80.908417     73.530167   -999.250000   -999.250000
    2967.0002     81.295624     73.745300   -999.250000   -999.250000
    2966.9002     80.980957     73.947998   -999.250000   -999.250000
    2966.8002     80.463959     74.148468   -999.250000   -999.250000
    2966.7002     80.272324     74.362198   -999.250000   -999.250000
    2966.6002     79.577652     74.607162   -999.250000   -999.250000
    2966.5002     78.100739     74.904388   -999.250000   -999.250000
    2966.4002     76.546295     75.265732   -999.250000   -999.250000
    2966.3002     75.198730     75.639343   -999.250000   -999.250000
    2966.2002     74.250534     75.920639   -999.250000   -999.250000
    2966.1002     73.803925     76.085251   -999.250000   -999.250000
    2966.0002     74.150467     76.176514   -999.250000   -999.250000
    2965.9002     74.937759     76.201797   -999.250000   -999.250000
    2965.8002     75.440735     76.135651   -999.250000   -999.250000
    2965.7002     75.559235     75.996750   -999.250000   -999.250000
    2965.6002     75.526901     75.830170   -999.250000   -999.250000
    2965.5002     75.513077     75.656693   -999.250000   -999.250000
    2965.4002     75.633392     75.485687   -999.250000   -999.250000
    2965.3002     75.717392     75.327911   -999.250000   -999.250000
    2965.2002     75.429916     75.196121   -999.250000   -999.250000
    2965.1002     75.111862     75.100998   -999.250000   -999.250000
    2965.0002     75.055405     75.034912   -999.250000   -999.250000
    2964.9002     75.088791     74.971741   -999.250000   -999.250000
    2964.8002     74.612396     74.885635   -999.250000   -999.250000
    2964.7002     73.577026     74.771606   -999.250000   -999.250000
    2964.6002     72.642838     74.641693   -999.250000   -999.250000
    2964.5002     72.386124     74.500259   -999.250000   -999.250000
    2964.4002     72.777405     74.287399   -999.250000   -999.250000
    2964.3002     73.469604     73.906540   -999.250000   -999.250000
    2964.2002     74.155838     73.427353   -999.250000   -999.250000
    2964.1002     74.798828     73.015778   -999.250000   -999.250000
    2964.0002     75.711609     72.702118   -999.250000   -999.250000
    2963.9002     76.791107     72.451126   -999.250000   -999.250000
    2963.8002     77.663574     72.308533   -999.250000   -999.250000
    2963.7002     78.135452     72.311554   -999.250000   -999.250000
    2963.6002     78.277603     72.391861   -999.250000   -999.250000
    2963.5002     78.256653     72.444717   -999.250000   -999.250000
    2963.4002     77.671997     72.416077   -999.250000   -999.250000
    2963.3002     76.695099     72.329895   -999.250000   -999.250000
    2963.2002     76.119629     72.205215   -999.250000   -999.250000
    2963.1002     76.249176     72.044464   -999.250000   -999.250000
    2963.0002     77.055344     71.903503   -999.250000   -999.250000
    2962.9002     78.085693     71.871338   -999.250000   -999.250000
    2962.8002     79.108429     72.016663   -999.250000   -999.250000
    2962.7002     79.919983     72.355972   -999.250000   -999.250000
    2962.6002     80.467194     72.784103   -999.250000   -999.250000
    2962.5002     80.145920     73.168152   -999.250000   -999.250000
    2962.4002     78.642319     73.377716   -999.250000   -999.250000
    2962.3002     77.146317     73.338043   -999.250000   -999.250000
    2962.2002     75.817429     73.103012   -999.250000   -999.250000
    2962.1002     74.687958     72.806732   -999.250000   -999.250000
