# LAS format data
~Version Information
VERS.     2.00: CWLS LOG ASCII STANDARD - VERSION 2.0
WRAP.       NO: ONE LINE PER DEPTH STEP
~Well Information
#MNEM   .UNITS    DATA                           DESCRIPTION
#----   ------    ----                           -----------
STRT    .M        3928.0000                     :First Index Value
STOP    .M        64.9000                       :Last Index Value
STEP    .M        -0.1000                       :Frame Spacing
NULL    .         -999.2500                     :Absent Value
WELL    .         L07-01                        :Well Name
NAME	.         L07-01                        :Well Name   
FLD     .         UNKNOWN                       :Field Name  
CNTY    .                                       :County
STAT    .                                       :State
CTRY    .                                       :Country
LOC     .                                       :Location
API     .                                       :API Number
UWI     .         L07-01                        :UWI Number
DATE    .                                       :Date
COMP    .         PETROLAND                     :Company Name
SRVC    .                                       :Service Company
LATI    .DEG	53.722768                       :LATITUDE 
LONG    .DEG	4.796468                        :LONGITUDE 
~Parameter Information
#MNEM   .UNITS    VALUE                          DESCRIPTION
#----   ------    -----                          -----------
TDL     .M        3934.00000                    :Total Depth (Logger)
TDD     .M        3934.00000                    :Total Depth (Driller)   
UBID    .         7264                          :Unique Borehole Id  
PDAT    .         Mean Sea Level                :Permanent Datum 
EPD     .M           0.00000                    :Elevation of Permanent Datum (PDAT) above Mean Sea Level
LMF     .         Rotary Table                  :Logging Measured From (Name of Logging Elevation Reference) 
APD     .M          37.00000                    :Elevation of Depth Reference (LMF) Above Permanent Datum
EGL     .M         -36.00000                    :Elevation of Ground Level Above Mean Sea Level  
~Curve Information
#MNEM   .UNITS    API CODE                       CURVE DESCRIPTION
#----   ------    --------                       -----------------
DEPT    .M                                      :1     Index curve
GR      .GAPI                                   :2     L07-01
DT      .US/F                                   :3     L07-01
RHOB    .G/C3                                   :4     L07-01
NPHI    .V/V                                    :5     L07-01
~Ascii Log Data
# ...
    1570.5001     17.012630     89.507385   -999.250000   -999.250000
    1570.4001     16.361427     89.620026   -999.250000   -999.250000
    1570.3001     16.162914     89.805923   -999.250000   -999.250000
    1570.2001     16.557537     90.033340   -999.250000   -999.250000
    1570.1001     16.171192     90.267899   -999.250000   -999.250000
    1570.0001     15.529634     90.451355   -999.250000   -999.250000
    1569.9001     14.972412     90.466492   -999.250000   -999.250000
    1569.8001     14.745804     90.197006   -999.250000   -999.250000
    1569.7001     14.677204     89.499329   -999.250000   -999.250000
    1569.6001     14.726744     88.463089   -999.250000   -999.250000
    1569.5001     14.918806     87.278702   -999.250000   -999.250000
    1569.4001     14.882095     86.159973   -999.250000   -999.250000
    1569.3001     14.467197     85.268753   -999.250000   -999.250000
    1569.2001     15.036371     84.668930   -999.250000   -999.250000
    1569.1001     15.947947     84.460281   -999.250000   -999.250000
    1569.0001     16.344131     84.639908   -999.250000   -999.250000
    1568.9001     16.520355     85.203247   -999.250000   -999.250000
    1568.8001     16.389446     85.988724   -999.250000   -999.250000
    1568.7001     15.728832     86.914490   -999.250000   -999.250000
    1568.6001     14.948111     87.944794   -999.250000   -999.250000
    1568.5001     14.238775     89.081772   -999.250000   -999.250000
    1568.4001     14.067745     90.393539   -999.250000   -999.250000
    1568.3001     14.227196     91.601364   -999.250000   -999.250000
    1568.2001     14.701023     92.493546   -999.250000   -999.250000
    1568.1001     15.269102     92.896118   -999.250000   -999.250000
    1568.0001     15.482721     92.635574   -999.250000   -999.250000
    1567.9001     15.276056     91.666122   -999.250000   -999.250000
    1567.8001     14.834696     90.483673   -999.250000   -999.250000
    1567.7001     14.302683     89.580032   -999.250000   -999.250000
    1567.6001     13.762428     89.103149   -999.250000   -999.250000
    1567.5001     13.483854     89.110214   -999.250000   -999.250000
    1567.4001     13.361298     89.468460   -999.250000   -999.250000
    1567.3001     13.434685     90.134064   -999.250000   -999.250000
    1567.2001     13.702488     90.847382   -999.250000   -999.250000
    1567.1001     14.101845     91.386520   -999.250000   -999.250000
    1567.0001     14.615026     91.627548   -999.250000   -999.250000
    1566.9001     15.058495     91.609283   -999.250000   -999.250000
    1566.8001     15.168972     91.459808   -999.250000   -999.250000
    1566.7001     14.775650     91.303574   -999.250000   -999.250000
    1566.6001     14.213388     91.177719   -999.250000   -999.250000
    1566.5001     13.541069     91.059387   -999.250000   -999.250000
    1566.4001     12.897999     90.912308   -999.250000   -999.250000
    1566.3001     12.517607     90.636703   -999.250000   -999.250000
    1566.2001     12.613426     90.256683   -999.250000   -999.250000
    1566.1001     13.015085     89.867905   -999.250000   -999.250000
    1566.0001     12.946762     89.572647   -999.250000   -999.250000
    1565.9001     12.890026     89.395065   -999.250000   -999.250000
    1565.8001     13.118732     89.304016   -999.250000   -999.250000
    1565.7001     13.095554     89.282776   -999.250000   -999.250000
    1565.6001     13.306604     89.333099   -999.250000   -999.250000
    1565.5001     14.056938     89.428284   -999.250000   -999.250000
    1565.4001     14.778461     89.480255   -999.250000   -999.250000
    1565.3001     15.265770     89.349579   -999.250000   -999.250000
    1565.2001     15.475285     88.944519   -999.250000   -999.250000
    1565.1001     15.474026     88.317047   -999.250000   -999.250000
    1565.0001     15.689165     87.630402   -999.250000   -999.250000
    1564.9001     16.317070     87.069717   -999.250000   -999.250000
    1564.8001     16.976192     86.739273   -999.250000   -999.250000
    1564.7001     17.269108     86.595551   -999.250000   -999.250000
    1564.6001     17.162121     86.554626   -999.250000   -999.250000
    1564.5001     16.985424     86.632584   -999.250000   -999.250000
    1564.4001     16.807697     86.937286   -999.250000   -999.250000
    1564.3001     16.567871     87.562134   -999.250000   -999.250000
    1564.2001     16.256016     88.506042   -999.250000   -999.250000
    1564.1001     15.970366     89.647552   -999.250000   -999.250000
    1564.0001     15.825212     90.719040   -999.250000   -999.250000
    1563.9001     15.898058     91.416962   -999.250000   -999.250000
    1563.8001     15.752398     91.600906   -999.250000   -999.250000
    1563.7001     15.282600     91.365936   -999.250000   -999.250000
    1563.6001     15.485209     90.875031   -999.250000   -999.250000
    1563.5001     16.159973     90.274521   -999.250000   -999.250000
    1563.4001     16.449524     89.697983   -999.250000   -999.250000
    1563.3001     16.205257     89.277908   -999.250000   -999.250000
    1563.2001     15.517292     89.131866   -999.250000   -999.250000
    1563.1001     14.526802     89.326172   -999.250000   -999.250000
    1563.0001     13.715603     89.908722   -999.250000   -999.250000
    1562.9001     13.300198     90.891754   -999.250000   -999.250000
    1562.8001     13.114237     92.146317   -999.250000   -999.250000
    1562.7001     13.212963     93.445526   -999.250000   -999.250000
    1562.6001     13.490688     94.611710   -999.250000   -999.250000
    1562.5001     13.670328     95.492371   -999.250000   -999.250000
    1562.4001     13.441492     95.895752   -999.250000   -999.250000
    1562.3001     13.076855     95.654099   -999.250000   -999.250000
    1562.2001     13.211761     94.794083   -999.250000   -999.250000
    1562.1001     13.584791     93.583389   -999.250000   -999.250000
    1562.0001     13.666939     92.306641   -999.250000   -999.250000
    1561.9001     13.320850     91.220322   -999.250000   -999.250000
    1561.8001     12.852942     90.557724   -999.250000   -999.250000
    1561.7001     12.560308     90.375824   -999.250000   -999.250000
    1561.6001     12.330578     90.609436   -999.250000   -999.250000
    1561.5001     12.120926     91.104095   -999.250000   -999.250000
    1561.4001     12.117960     91.611588   -999.250000   -999.250000
    1561.3001     12.742702     91.830261   -999.250000   -999.250000
    1561.2001     13.524397     91.533920   -999.250000   -999.250000
    1561.1001     13.623007     90.681534   -999.250000   -999.250000
    1561.0001     13.338327     89.510391   -999.250000   -999.250000
    1560.9001     13.218706     88.315186   -999.250000   -999.250000
    1560.8001     13.627453     87.360535   -999.250000   -999.250000
    1560.7001     13.642199     86.890747   -999.250000   -999.250000
    1560.6001     13.351292     87.038727   -999.250000   -999.250000
    1560.5001     13.831762     87.738922   -999.250000   -999.250000
    1560.4001     14.028166     88.737991   -999.250000   -999.250000
    1560.3001     13.710064     89.706528   -999.250000   -999.250000
    1560.2001     14.121920     90.344376   -999.250000   -999.250000
    1560.1001     14.421949     90.569168   -999.250000   -999.250000
    1560.0001     14.081337     90.465408   -999.250000   -999.250000
    1559.9001     13.942017     90.174728   -999.250000   -999.250000
    1559.8001     13.669426     89.933792   -999.250000   -999.250000
    1559.7001     13.154703     89.883102   -999.250000   -999.250000
    1559.6001     13.410093     90.037888   -999.250000   -999.250000
    1559.5001     14.069811     90.388702   -999.250000   -999.250000
    1559.4001     14.605812     90.865524   -999.250000   -999.250000
    1559.3001     14.947525     91.388901   -999.250000   -999.250000
    1559.2001     14.915083     91.898407   -999.250000   -999.250000
    1559.1001     14.345600     92.311356   -999.250000   -999.250000
