# LAS format data
~Version Information
VERS.     2.00: CWLS LOG ASCII STANDARD - VERSION 2.0
WRAP.       NO: ONE LINE PER DEPTH STEP
~Well Information
#MNEM   .UNITS    DATA                           DESCRIPTION
#----   ------    ----                           -----------
STRT    .M        3928.0000                     :First Index Value
STOP    .M        64.9000                       :Last Index Value
STEP    .M        -0.1000                       :Frame Spacing
NULL    .         -999.2500                     :Absent Value
WELL    .         L07-01                        :Well Name
NAME	.         L07-01                        :Well Name   
FLD     .         UNKNOWN                       :Field Name  
CNTY    .                                       :County
STAT    .                                       :State
CTRY    .                                       :Country
LOC     .                                       :Location
API     .                                       :API Number
UWI     .         L07-01                        :UWI Number
DATE    .                                       :Date
COMP    .         PETROLAND                     :Company Name
SRVC    .                                       :Service Company
LATI    .DEG	53.722768                       :LATITUDE 
LONG    .DEG	4.796468                        :LONGITUDE 
~Parameter Information
#MNEM   .UNITS    VALUE                          DESCRIPTION
#----   ------    -----                          -----------
TDL     .M        3934.00000                    :Total Depth (Logger)
TDD     .M        3934.00000                    :Total Depth (Driller)   
UBID    .         7264                          :Unique Borehole Id  
PDAT    .         Mean Sea Level                :Permanent Datum 
EPD     .M           0.00000                    :Elevation of Permanent Datum (PDAT) above Mean Sea Level
LMF     .         Rotary Table                  :Logging Measured From (Name of Logging Elevation Reference) 
APD     .M          37.00000                    :Elevation of Depth Reference (LMF) Above Permanent Datum
EGL     .M         -36.00000                    :Elevation of Ground Level Above Mean Sea Level  
~Curve Information
#MNEM   .UNITS    API CODE                       CURVE DESCRIPTION
#----   ------    --------                       -----------------
DEPT    .M                                      :1     Index curve
GR      .GAPI                                   :2     L07-01
DT      .US/F                                   :3     L07-01
RHOB    .G/C3                                   :4     L07-01
NPHI    .V/V                                    :5     L07-01
~Ascii Log Data
# ...
    1800.5001     11.909992     79.500458   -999.250000   -999.250000
    1800.4001     12.717083     79.761551   -999.250000   -999.250000
    1800.3001     13.369617     79.931274   -999.250000   -999.250000
    1800.2001     13.743217     80.045364   -999.250000   -999.250000
    1800.1001     14.016680     80.058807   -999.250000   -999.250000
    1800.0001     14.160587     79.900116   -999.250000   -999.250000
    1799.9001     14.166378     79.672867   -999.250000   -999.250000
    1799.8001     14.343349     79.378952   -999.250000   -999.250000
    1799.7001     14.762251     79.135468   -999.250000   -999.250000
    1799.6001     15.296900     78.999695   -999.250000   -999.250000
    1799.5001     15.527458     78.854111   -999.250000   -999.250000
    1799.4001     15.273712     78.709839   -999.250000   -999.250000
    1799.3001     14.562473     78.599365   -999.250000   -999.250000
    1799.2001     13.561436     78.746567   -999.250000   -999.250000
    1799.1001     12.484068     79.178116   -999.250000   -999.250000
    1799.0001     11.903399     79.606140   -999.250000   -999.250000
    1798.9001     11.670996     79.798843   -999.250000   -999.250000
    1798.8001     11.822659     79.872162   -999.250000   -999.250000
    1798.7001     12.137959     79.759552   -999.250000   -999.250000
    1798.6001     12.561180     79.325195   -999.250000   -999.250000
    1798.5001     13.096266     78.607819   -999.250000   -999.250000
    1798.4001     13.709684     77.925262   -999.250000   -999.250000
    1798.3001     14.245275     77.624390   -999.250000   -999.250000
    1798.2001     14.583059     77.763748   -999.250000   -999.250000
    1798.1001     14.820467     78.262314   -999.250000   -999.250000
    1798.0001     14.861202     78.938522   -999.250000   -999.250000
    1797.9001     14.766190     79.611954   -999.250000   -999.250000
    1797.8001     14.854788     80.177933   -999.250000   -999.250000
    1797.7001     15.064894     80.559723   -999.250000   -999.250000
    1797.6001     15.267036     80.736191   -999.250000   -999.250000
    1797.5001     15.396624     80.799744   -999.250000   -999.250000
    1797.4001     15.209873     80.846832   -999.250000   -999.250000
    1797.3001     14.677513     80.908295   -999.250000   -999.250000
    1797.2001     14.189722     81.007767   -999.250000   -999.250000
    1797.1001     13.604376     81.188049   -999.250000   -999.250000
    1797.0001     12.899446     81.469757   -999.250000   -999.250000
    1796.9001     12.432022     81.817459   -999.250000   -999.250000
    1796.8001     12.187462     82.149750   -999.250000   -999.250000
    1796.7001     12.005651     82.340424   -999.250000   -999.250000
    1796.6001     11.852610     82.280975   -999.250000   -999.250000
    1796.5001     11.736433     82.048279   -999.250000   -999.250000
    1796.4001     11.754065     81.849030   -999.250000   -999.250000
    1796.3001     12.091932     81.759949   -999.250000   -999.250000
    1796.2001     12.860020     81.708450   -999.250000   -999.250000
    1796.1001     13.848797     81.625534   -999.250000   -999.250000
    1796.0001     14.697660     81.517868   -999.250000   -999.250000
    1795.9001     15.081387     81.418213   -999.250000   -999.250000
    1795.8001     14.930937     81.334732   -999.250000   -999.250000
    1795.7001     14.281311     81.262512   -999.250000   -999.250000
    1795.6001     13.392414     81.201218   -999.250000   -999.250000
    1795.5001     12.618055     81.148270   -999.250000   -999.250000
    1795.4001     12.295162     81.091568   -999.250000   -999.250000
    1795.3001     12.457638     81.014999   -999.250000   -999.250000
    1795.2001     12.858650     80.893082   -999.250000   -999.250000
    1795.1001     13.249651     80.669418   -999.250000   -999.250000
    1795.0001     13.389214     80.361893   -999.250000   -999.250000
    1794.9001     13.211977     80.094986   -999.250000   -999.250000
    1794.8001     12.842667     79.977737   -999.250000   -999.250000
    1794.7001     12.677711     80.019211   -999.250000   -999.250000
    1794.6001     13.010986     80.166931   -999.250000   -999.250000
    1794.5001     13.648897     80.326431   -999.250000   -999.250000
    1794.4001     14.334393     80.392548   -999.250000   -999.250000
    1794.3001     14.994553     80.304962   -999.250000   -999.250000
    1794.2001     15.498526     80.103607   -999.250000   -999.250000
    1794.1001     15.733480     79.882462   -999.250000   -999.250000
    1794.0001     15.692423     79.709061   -999.250000   -999.250000
    1793.9001     15.236069     79.599548   -999.250000   -999.250000
    1793.8001     14.438242     79.538010   -999.250000   -999.250000
    1793.7001     13.652483     79.545883   -999.250000   -999.250000
    1793.6001     13.198036     79.719894   -999.250000   -999.250000
    1793.5001     13.207310     80.129654   -999.250000   -999.250000
    1793.4001     13.486794     80.724014   -999.250000   -999.250000
    1793.3001     13.992399     81.415604   -999.250000   -999.250000
    1793.2001     14.619726     82.136948   -999.250000   -999.250000
    1793.1001     15.152462     82.816727   -999.250000   -999.250000
    1793.0001     15.443764     83.374344   -999.250000   -999.250000
    1792.9001     15.475719     83.796402   -999.250000   -999.250000
    1792.8001     15.359262     84.248413   -999.250000   -999.250000
    1792.7001     14.792955     84.853592   -999.250000   -999.250000
    1792.6001     13.583643     85.441513   -999.250000   -999.250000
    1792.5001     12.496704     85.854996   -999.250000   -999.250000
    1792.4001     11.953320     86.062866   -999.250000   -999.250000
    1792.3001     11.853943     86.049393   -999.250000   -999.250000
    1792.2001     12.207535     85.687393   -999.250000   -999.250000
    1792.1001     12.808283     84.940765   -999.250000   -999.250000
    1792.0001     12.901045     84.073013   -999.250000   -999.250000
    1791.9001     12.750257     83.272873   -999.250000   -999.250000
    1791.8001     12.470688     82.731796   -999.250000   -999.250000
    1791.7001     11.963329     82.326385   -999.250000   -999.250000
    1791.6001     11.746576     81.891144   -999.250000   -999.250000
    1791.5001     12.337858     81.466812   -999.250000   -999.250000
    1791.4001     12.907990     81.037949   -999.250000   -999.250000
    1791.3001     13.361490     80.514008   -999.250000   -999.250000
    1791.2001     13.433075     80.222504   -999.250000   -999.250000
    1791.1001     13.121984     80.329254   -999.250000   -999.250000
    1791.0001     12.812237     80.784851   -999.250000   -999.250000
    1790.9001     13.224129     81.423035   -999.250000   -999.250000
    1790.8001     13.848028     82.011642   -999.250000   -999.250000
    1790.7001     14.567249     82.400375   -999.250000   -999.250000
    1790.6001     15.062450     82.629242   -999.250000   -999.250000
    1790.5001     15.302057     82.744873   -999.250000   -999.250000
    1790.4001     15.108986     82.616226   -999.250000   -999.250000
    1790.3001     14.391518     82.194290   -999.250000   -999.250000
    1790.2001     14.236116     81.619476   -999.250000   -999.250000
    1790.1001     14.535439     81.085800   -999.250000   -999.250000
    1790.0001     14.224445     80.672272   -999.250000   -999.250000
    1789.9001     13.772358     80.448349   -999.250000   -999.250000
    1789.8001     13.301868     80.416534   -999.250000   -999.250000
    1789.7001     12.998461     80.395004   -999.250000   -999.250000
    1789.6001     12.815018     80.168839   -999.250000   -999.250000
    1789.5001     12.755697     79.664871   -999.250000   -999.250000
    1789.4001     12.784071     79.057556   -999.250000   -999.250000
    1789.3001     13.158773     78.465820   -999.250000   -999.250000
    1789.2001     13.960823     77.894974   -999.250000   -999.250000
    1789.1001     14.428131     77.491547   -999.250000   -999.250000
