# LAS format data
~Version Information
VERS.     2.00: CWLS LOG ASCII STANDARD - VERSION 2.0
WRAP.       NO: ONE LINE PER DEPTH STEP
~Well Information
#MNEM   .UNITS    DATA                           DESCRIPTION
#----   ------    ----                           -----------
STRT    .M        0.1000                        :First Index Value
STOP    .M        4856.1008                     :Last Index Value
STEP    .M        -0.1000                       :Frame Spacing
NULL    .         -999.2500                     :Absent Value
WELL    .         L06-07                        :Well Name   
NAME	.         L06-07                        :Well Name   
FLD     .         L Block                       :Field Name  
CNTY    .                                       :County
STAT    .                                       :State
CTRY    .                                       :Country
LOC     .                                       :Location
API     .                                       :API Number
UWI     .         L06-07                        :UWI Number
DATE    .                                       :Date
COMP    .                                       :Company
SRVC    .                                       :Service Company
LATI    .DEG	53.706549                         :LATITUDE 
LONG    .DEG	4.898703                          :LONGITUDE 
~Parameter Information
#MNEM   .UNITS    VALUE                          DESCRIPTION
#----   ------    -----                          -----------
TDL     .M        4865.00000                    :Total Depth (Logger)
TDD     .M        4865.00000                    :Total Depth (Driller)   
UBID    .         8971                          :Unique Borehole Id  
PDAT    .         Mean Sea Level                :Permanent Datum 
EPD     .M           0.00000                    :Elevation of Permanent Datum (PDAT) above Mean Sea Level
LMF     .         Rotary Table                  :Logging Measured From (Name of Logging Elevation Reference) 
APD     .M          42.00000                    :Elevation of Depth Reference (LMF) Above Permanent Datum
~Curve Information
#MNEM   .UNITS    API CODE                       CURVE DESCRIPTION
#----   ------    --------                       -----------------
DEPT    .M                                      :1     Index curve
GR      .GAPI                                   :2     L06-07
DT      .US/F                                   :3     L06-07
RHOB    .G/C3                                   :4     L06-07
DRHO    .G/C3                                   :5     L06-07
NPHI    .V/V                                    :6     L06-07
~Ascii Log Data
# ...
    4684.9008     72.354965     72.433655      2.623435     -0.045940   -999.250000
    4685.0008     56.146400     71.105453      2.645431     -0.029945   -999.250000
    4685.1008     48.291260     69.646469      2.656002     -0.018747   -999.250000
    4685.2008     45.160149     68.219604      2.652524     -0.013730   -999.250000
    4685.3008     42.288223     66.945526      2.642278     -0.014102   -999.250000
    4685.4008     40.632507     65.943283      2.631764     -0.017814      0.091009
    4685.5008     43.755447     65.283539      2.622495     -0.022824      0.096130
    4685.6008     50.979836     64.980804      2.614577     -0.027654      0.097642
    4685.7008     57.543350     64.864075      2.606725     -0.032043      0.094472
    4685.8008     60.020790     64.753281      2.597676     -0.036720      0.086823
    4685.9008     57.171890     64.618362      2.588855     -0.042327      0.076263
    4686.0008     48.779045     64.488480      2.582000     -0.049322      0.067598
    4686.1008     38.494019     64.411301   -999.250000   -999.250000      0.067818
    4686.2008     31.689720     64.454514   -999.250000   -999.250000      0.081728
    4686.3008     30.923794     64.687881   -999.250000   -999.250000      0.108310
    4686.4008     36.678780     65.180252   -999.250000   -999.250000      0.135428
    4686.5008     49.085373     65.949097   -999.250000   -999.250000      0.158968
    4686.6008     64.905746     66.959244   -999.250000   -999.250000      0.180931
    4686.7008     77.624130     68.184067   -999.250000   -999.250000      0.192853
    4686.8008     85.632278     69.565048   -999.250000   -999.250000      0.193908
    4686.9008     91.734314     70.994064   -999.250000   -999.250000      0.191436
    4687.0008     96.748337     72.414932      2.670619   -999.250000      0.193635
    4687.1008     99.025681     73.751083      2.662540     -0.005515      0.198593
    4687.2008     99.222946     74.956192      2.655237     -0.007380      0.188581
    4687.3008    101.983444     76.000931      2.653380     -0.007511      0.160597
    4687.4008    110.917145     76.849152      2.657593     -0.006330      0.138860
    4687.5008    122.951370     77.457535      2.663493     -0.005337      0.129858
    4687.6008    129.699860     77.660919      2.667626     -0.006118      0.125005
    4687.7008    125.657822     77.486496      2.669878     -0.008298      0.124793
    4687.8008    109.261093     76.923477      2.671368     -0.010609      0.121359
    4687.9008     82.997253     75.817703      2.675037     -0.011260      0.106727
    4688.0008     57.000313     74.368408      2.679727     -0.009865      0.093711
    4688.1008     39.398064     72.710022      2.673821     -0.008208      0.094387
    4688.2008     32.437355     71.116669      2.650471     -0.008167      0.111263
    4688.3008     37.108871     69.891953      2.623501     -0.008302      0.133914
    4688.4008     50.687897     69.373016      2.611024     -0.007297      0.136644
    4688.5008     67.569733     69.573944      2.611590     -0.006143      0.114513
    4688.6008     80.530869     70.085159      2.618437     -0.007412      0.101240
    4688.7008     86.822495     70.638245      2.628919     -0.010282      0.123215
    4688.8008     83.396286     70.947464      2.639865     -0.013105      0.145902
    4688.9008     70.776733     71.041336      2.650417     -0.013224      0.143921
    4689.0008     55.162407     70.786560      2.664580     -0.009741      0.145754
    4689.1008     43.738335     70.270508      2.677038     -0.004064      0.147241
    4689.2008     40.125984     69.606216      2.675569     -0.000783      0.146581
    4689.3008     45.488281     68.877792      2.658023     -0.001979      0.146025
    4689.4008     55.752930     68.202850      2.642066     -0.003578      0.141963
    4689.5008     65.587128     67.573105      2.639863     -0.001687      0.143536
    4689.6008     71.185883     67.327362      2.645599      0.001355      0.144189
    4689.7008     72.352112     67.269394      2.637859      0.001431      0.142862
    4689.8008     71.077972     67.421722      2.622381     -0.001044      0.144576
    4689.9008     70.497864     67.702469      2.615959     -0.000949      0.136874
    4690.0008     72.574615     67.973114      2.621676      0.001494      0.130778
    4690.1008     75.361969     68.216476      2.631177      0.004848      0.127455
    4690.2008     75.226868     68.394180      2.638428      0.005710      0.124932
    4690.3008     70.552994     68.519791      2.642409      0.003562      0.128536
    4690.4008     62.700920     68.574783      2.648469      0.000012      0.123163
    4690.5008     56.267792     68.542587      2.657807     -0.002416      0.110874
    4690.6008     56.837822     68.485306      2.666202     -0.003410      0.104766
    4690.7008     64.631485     68.455338      2.671668     -0.003846      0.102664
    4690.8008     75.919189     68.527908      2.676445     -0.003950      0.108465
    4690.9008     86.360138     68.659866      2.680428     -0.003754      0.128847
    4691.0008     92.541183     68.796402      2.682869     -0.003185      0.136159
    4691.1008     91.605087     68.819473      2.683416     -0.002689      0.132079
    4691.2008     83.124359     68.696198      2.679813     -0.003542      0.129823
    4691.3008     70.916214     68.379959      2.670888     -0.005974      0.123371
    4691.4008     60.096222     68.052048      2.663107     -0.008465      0.112929
    4691.5008     55.316597     67.787720      2.663618     -0.008637      0.098331
    4691.6008     60.516670     67.686218      2.671862     -0.006275      0.084881
    4691.7008     73.845642     67.744080      2.676387     -0.004141      0.076825
    4691.8008     89.103500     68.028351      2.671168     -0.004710      0.077753
    4691.9008    100.469727     68.609985      2.657834     -0.007461      0.089417
    4692.0008    106.621307     69.435120      2.640615     -0.010505      0.112967
    4692.1006    107.132919     70.464188      2.625666     -0.011795      0.146387
    4692.2006    103.948517     71.585953      2.617495     -0.010647      0.174879
    4692.3006    101.253189     72.745987      2.615016     -0.008229      0.181937
    4692.4006    101.806137     73.923920      2.614380     -0.005756      0.176834
    4692.5006    105.963196     75.192322      2.616169     -0.003430      0.171376
    4692.6006    113.028580     76.546478      2.620502     -0.001655      0.169342
    4692.7006    121.647614     78.019135      2.623425     -0.001183      0.171815
    4692.8006    130.603394     79.664886      2.622753     -0.002253      0.177820
    4692.9006    138.084839     81.341797      2.619476     -0.004323      0.188329
    4693.0006    142.038940     82.804779      2.617817     -0.006628      0.200465
    4693.1006    141.376495     83.828888      2.623583     -0.008730      0.214349
    4693.2006    136.263519     84.240402      2.639072     -0.010676      0.230340
    4693.3006    125.485504     83.941940      2.659266     -0.012419      0.237161
    4693.4006    106.450043     82.958633      2.677596     -0.012742      0.231481
    4693.5006     80.425217     81.237076      2.690227     -0.010535      0.217721
    4693.6006     55.071564     78.799789      2.691791     -0.007154      0.189911
    4693.7006     37.887451     75.955917      2.681335     -0.005226      0.149622
    4693.8006     29.854366     73.085419      2.666585     -0.005526      0.113797
    4693.9006     27.726021     70.517380      2.653845     -0.006759      0.093516
    4694.0006     28.610493     68.509109      2.643353     -0.007372      0.087020
    4694.1006     30.673660     67.207703      2.633969     -0.006450      0.087378
    4694.2006     33.282417     66.565460      2.625365     -0.004092      0.090000
    4694.3006     36.981842     66.445038      2.616081     -0.001453      0.093504
    4694.4006     42.633492     66.755127      2.603490     -0.000195      0.097218
