# LAS format data
~Version Information
VERS.     2.00: CWLS LOG ASCII STANDARD - VERSION 2.0
WRAP.       NO: ONE LINE PER DEPTH STEP
~Well Information
#MNEM   .UNITS    DATA                           DESCRIPTION
#----   ------    ----                           -----------
STRT    .M        0.1000                        :First Index Value
STOP    .M        4856.1008                     :Last Index Value
STEP    .M        -0.1000                       :Frame Spacing
NULL    .         -999.2500                     :Absent Value
WELL    .         L06-07                        :Well Name   
NAME	.         L06-07                        :Well Name   
FLD     .         L Block                       :Field Name  
CNTY    .                                       :County
STAT    .                                       :State
CTRY    .                                       :Country
LOC     .                                       :Location
API     .                                       :API Number
UWI     .         L06-07                        :UWI Number
DATE    .                                       :Date
COMP    .                                       :Company
SRVC    .                                       :Service Company
LATI    .DEG	53.706549                         :LATITUDE 
LONG    .DEG	4.898703                          :LONGITUDE 
~Parameter Information
#MNEM   .UNITS    VALUE                          DESCRIPTION
#----   ------    -----                          -----------
TDL     .M        4865.00000                    :Total Depth (Logger)
TDD     .M        4865.00000                    :Total Depth (Driller)   
UBID    .         8971                          :Unique Borehole Id  
PDAT    .         Mean Sea Level                :Permanent Datum 
EPD     .M           0.00000                    :Elevation of Permanent Datum (PDAT) above Mean Sea Level
LMF     .         Rotary Table                  :Logging Measured From (Name of Logging Elevation Reference) 
APD     .M          42.00000                    :Elevation of Depth Reference (LMF) Above Permanent Datum
~Curve Information
#MNEM   .UNITS    API CODE                       CURVE DESCRIPTION
#----   ------    --------                       -----------------
DEPT    .M                                      :1     Index curve
GR      .GAPI                                   :2     L06-07
DT      .US/F                                   :3     L06-07
RHOB    .G/C3                                   :4     L06-07
DRHO    .G/C3                                   :5     L06-07
NPHI    .V/V                                    :6     L06-07
~Ascii Log Data
# ...
    4368.1002     73.598648     76.411316      2.618066     -0.041742      0.163650
    4368.2002     68.280655     75.601959      2.622817     -0.040123      0.166391
    4368.3002     66.597397     75.385880      2.630197     -0.038295      0.165425
    4368.4002     73.147385     75.828598      2.638426     -0.036686      0.162155
    4368.5002     86.622513     76.861221      2.641410     -0.036023      0.165721
    4368.6002    101.187195     78.362961      2.634973     -0.036800      0.178725
    4368.7002    112.500320     80.127228      2.622501     -0.038700      0.195107
    4368.8002    119.372559     81.950851      2.610147     -0.040976      0.212478
    4368.9002    122.214417     83.685333      2.600127     -0.043167      0.229738
    4369.0002    122.729813     85.277359      2.591678     -0.044991      0.242750
    4369.1002    122.238205     86.622864      2.585422     -0.045869      0.251718
    4369.2002    120.751953     87.564697      2.581601     -0.045604      0.261543
    4369.3002    118.177917     88.006973      2.578911     -0.044619      0.272055
    4369.4002    115.154724     87.870117      2.580047     -0.043113      0.278738
    4369.5002    111.575989     87.133881      2.589778     -0.040965      0.274248
    4369.6002    106.123306     85.917282      2.604902     -0.038549      0.252315
    4369.7002     98.944168     84.433685      2.617554     -0.036559      0.225221
    4369.8002     92.114471     82.933685      2.626481     -0.034935      0.210000
    4369.9002     87.605499     81.623566      2.635804     -0.033191      0.203955
    4370.0002     86.772644     80.698120      2.646040     -0.031554      0.198006
    4370.1002     90.818542     80.311188      2.651545     -0.030895      0.191741
    4370.2002     99.015106     80.471344      2.648424     -0.031489      0.185001
    4370.3002    107.714615     81.146133      2.640762     -0.032379      0.186189
    4370.4002    114.249191     82.200531      2.632854     -0.032737      0.204205
    4370.5002    118.865311     83.464249      2.622823     -0.032974      0.229519
    4370.6002    122.610367     84.723175      2.609648     -0.033601      0.246278
    4370.7002    123.888000     85.811966      2.598490     -0.034106      0.247648
    4370.8002    120.466003     86.557922      2.594581     -0.034404      0.242929
    4370.9002    113.594452     86.725800      2.593424     -0.035598      0.239245
    4371.0002    106.520554     86.371643      2.589079     -0.038475      0.232556
    4371.1002    100.401611     85.519958      2.584241     -0.041841      0.217977
    4371.2002     93.724228     84.072006      2.587640     -0.043647      0.197534
    4371.3002     87.550476     82.256882      2.601826     -0.042255      0.180788
    4371.4002     83.493805     80.274231      2.621359     -0.038782      0.171263
    4371.5002     81.282822     78.258560      2.639942     -0.034796      0.168554
    4371.6002     80.122940     76.465057      2.651703     -0.032708      0.175023
    4371.7002     80.930298     75.216125      2.656162     -0.033099      0.178025
    4371.8002     86.026947     74.586975      2.656393     -0.035506      0.171071
    4371.9002     93.923569     74.494125      2.653046     -0.038753      0.160071
    4372.0002    102.037811     75.068329      2.646082     -0.041439      0.170830
    4372.1002    109.187805     76.239258      2.636602     -0.042819      0.192882
    4372.2002    113.625534     77.795944      2.627934     -0.042415      0.215319
    4372.3002    114.420898     79.648315      2.623575     -0.040860      0.240853
    4372.4002    113.465195     81.473312      2.623059     -0.039767      0.242827
    4372.5002    112.665451     83.204987      2.623590     -0.039793      0.232678
    4372.6002    111.699478     84.620728      2.623982     -0.039942      0.226620
    4372.7002    111.978928     85.810760      2.622230     -0.039913      0.223384
    4372.8002    113.574020     86.739426      2.621616     -0.039452      0.232111
    4372.9002    114.695724     87.141922      2.627550     -0.037309      0.244787
    4373.0002    114.660660     87.298752      2.636503     -0.034770      0.238806
    4373.1002    113.833405     87.188065      2.640576     -0.033239      0.227420
    4373.2002    112.095657     86.833588      2.641394     -0.033010      0.218356
    4373.3002    109.195953     86.389420      2.642871     -0.032979      0.223372
    4373.4002    105.149811     85.848541      2.645395     -0.032859      0.230658
    4373.5002    102.572495     85.240524      2.647998     -0.031635      0.247146
    4373.6002    103.692841     84.604294      2.648427     -0.028874      0.214938
    4373.7002    105.554108     83.966492      2.642114     -0.027178      0.208879
    4373.8002    106.084030     83.301910      2.630761     -0.027851      0.232702
    4373.9002    104.960312     82.648605      2.622780     -0.028887      0.220638
    4374.0002    104.134354     82.114151      2.626217     -0.029081      0.209063
    4374.1002    104.251740     81.781448      2.632912     -0.028642      0.197962
    4374.2002    104.280472     81.552139      2.632799     -0.029244      0.194720
    4374.3002    102.299393     81.308273      2.625505     -0.030131      0.204252
    4374.4002     99.729050     80.996201      2.621086     -0.030024      0.215446
    4374.5002     98.402252     80.587708      2.625506     -0.027850      0.219309
    4374.6002     97.784348     80.047379      2.633678     -0.026194      0.209403
    4374.7002     96.868896     79.582413      2.632346     -0.027182      0.204418
    4374.8002     96.736969     79.276291      2.627100     -0.030296      0.204479
    4374.9002     99.114014     79.363892      2.623633     -0.033134      0.192642
    4375.0002    103.159637     79.781891      2.616709     -0.036949      0.191637
    4375.1002    107.153595     80.590057      2.603454     -0.042289      0.203101
    4375.2002    111.028336     81.743057      2.591999     -0.046358      0.215471
    4375.3002    114.472610     83.096161      2.588776     -0.047413      0.223814
    4375.4002    115.822250     84.556107      2.589934     -0.046207      0.233787
    4375.5002    115.434128     85.983963      2.591521     -0.044232      0.245785
    4375.6002    115.789291     87.340714      2.596254     -0.041358      0.251449
    4375.7002    117.690628     88.489624      2.605412     -0.037382      0.251668
    4375.8002    120.567352     89.355148      2.613686     -0.033037      0.244000
    4375.9002    123.703094     89.849152      2.617677     -0.029817      0.234524
    4376.0002    124.373779     89.864456      2.616437     -0.029010      0.228464
    4376.1002    119.673767     89.483871      2.609804     -0.031316      0.228560
    4376.2002    111.137177     88.761444      2.601535     -0.035704      0.236050
    4376.3002    103.594482     87.732895      2.597887     -0.039754      0.245948
    4376.4002     98.606827     86.474838      2.599432     -0.042033      0.247024
    4376.5002     95.375015     85.021225      2.602867     -0.042552      0.242115
    4376.6002     93.632828     83.426132      2.607576     -0.041598      0.231471
    4376.7002     92.715515     81.835510      2.616402     -0.039236      0.217920
    4376.8002     91.025452     80.360519      2.627037     -0.036323      0.208494
    4376.9002     88.313171     79.060959      2.632674     -0.034356      0.199383
    4377.0002     87.039154     78.017151      2.630468     -0.034260      0.191746
    4377.1002     89.630920     77.377884      2.623382     -0.036010      0.190582
    4377.2002     95.220642     77.198624      2.614539     -0.038731      0.192124
    4377.3002    101.277435     77.470078      2.608073     -0.040921      0.193535
    4377.4002    106.193924     78.176559      2.606668     -0.041618      0.198740
    4377.5002    109.221786     79.242065      2.606850     -0.041393      0.211811
    4377.6002    110.108154     80.540558      2.604207     -0.041251      0.228159
