# LAS format data
~Version Information
VERS.     2.00: CWLS LOG ASCII STANDARD - VERSION 2.0
WRAP.       NO: ONE LINE PER DEPTH STEP
~Well Information
#MNEM   .UNITS    DATA                           DESCRIPTION
#----   ------    ----                           -----------
STRT    .M        0.1000                        :First Index Value
STOP    .M        4856.1008                     :Last Index Value
STEP    .M        -0.1000                       :Frame Spacing
NULL    .         -999.2500                     :Absent Value
WELL    .         L06-07                        :Well Name   
NAME	.         L06-07                        :Well Name   
FLD     .         L Block                       :Field Name  
CNTY    .                                       :County
STAT    .                                       :State
CTRY    .                                       :Country
LOC     .                                       :Location
API     .                                       :API Number
UWI     .         L06-07                        :UWI Number
DATE    .                                       :Date
COMP    .                                       :Company
SRVC    .                                       :Service Company
LATI    .DEG	53.706549                         :LATITUDE 
LONG    .DEG	4.898703                          :LONGITUDE 
~Parameter Information
#MNEM   .UNITS    VALUE                          DESCRIPTION
#----   ------    -----                          -----------
TDL     .M        4865.00000                    :Total Depth (Logger)
TDD     .M        4865.00000                    :Total Depth (Driller)   
UBID    .         8971                          :Unique Borehole Id  
PDAT    .         Mean Sea Level                :Permanent Datum 
EPD     .M           0.00000                    :Elevation of Permanent Datum (PDAT) above Mean Sea Level
LMF     .         Rotary Table                  :Logging Measured From (Name of Logging Elevation Reference) 
APD     .M          42.00000                    :Elevation of Depth Reference (LMF) Above Permanent Datum
~Curve Information
#MNEM   .UNITS    API CODE                       CURVE DESCRIPTION
#----   ------    --------                       -----------------
DEPT    .M                                      :1     Index curve
GR      .GAPI                                   :2     L06-07
DT      .US/F                                   :3     L06-07
RHOB    .G/C3                                   :4     L06-07
DRHO    .G/C3                                   :5     L06-07
NPHI    .V/V                                    :6     L06-07
~Ascii Log Data
# ...
    4665.7008     80.382568     69.895676      2.639870     -0.000241      0.126740
    4665.8008     79.488464     69.006561      2.646919     -0.000589      0.132204
    4665.9008     79.012711     68.273849      2.652812     -0.001365      0.134769
    4666.0008     78.283737     67.655197      2.651763     -0.002980      0.132839
    4666.1008     77.004181     67.229950      2.646967     -0.004413      0.130250
    4666.2008     76.087677     66.915482      2.645024     -0.004380      0.131527
    4666.3008     75.995514     66.624435      2.647259     -0.003141      0.133856
    4666.4008     75.923889     66.337921      2.649861     -0.002047      0.134053
    4666.5008     75.569916     66.069199      2.649617     -0.002234      0.128390
    4666.6008     75.629288     65.831085      2.647146     -0.003104      0.120239
    4666.7008     75.653976     65.604401      2.647198     -0.003265      0.116004
    4666.8008     74.576752     65.410919      2.651122     -0.002150      0.116874
    4666.9008     73.028900     65.284500      2.656443     -0.000955      0.117444
    4667.0008     72.348602     65.151169      2.662417     -0.000290      0.116308
    4667.1008     72.337799     65.008865      2.667202     -0.000487      0.113484
    4667.2008     72.113739     64.907425      2.667315     -0.001323      0.113339
    4667.3008     72.734146     64.778885      2.663921     -0.002033      0.114585
    4667.4008     74.502625     64.629715      2.662066     -0.001664      0.115977
    4667.5008     74.912598     64.573288      2.664495     -0.000579      0.120688
    4667.6008     72.738861     64.623001      2.667235      0.000018      0.122608
    4667.7008     70.001114     64.778931      2.663973     -0.001047      0.117417
    4667.8008     69.017136     65.135635      2.657174     -0.002660      0.118437
    4667.9008     71.472687     65.583344      2.654920     -0.003243      0.128338
    4668.0008     78.556381     66.109528      2.659243     -0.002245      0.145963
    4668.1008     86.457809     66.688080      2.667477     -0.000520      0.158011
    4668.2008     91.508926     67.304153      2.678279      0.001205      0.142275
    4668.3008     94.825241     67.957642      2.683437      0.001297      0.121047
    4668.4008     97.928268     68.503815      2.678289     -0.002758      0.117940
    4668.5008    100.214539     68.973236      2.667739     -0.007807      0.124463
    4668.6008    100.490280     69.264252      2.665725     -0.010964      0.129011
    4668.7008     96.612686     69.483978      2.672154     -0.010771      0.131277
    4668.8008     85.455978     69.559509      2.676989     -0.009847      0.127135
    4668.9008     73.797653     69.322708      2.674114     -0.010302      0.126511
    4669.0008     67.029205     69.134201      2.673785     -0.010994      0.125874
    4669.1008     68.441666     69.071564      2.683545     -0.008835      0.121321
    4669.2008     75.589325     69.355896      2.698355     -0.005807      0.124191
    4669.3008     84.501724     69.891098      2.706236     -0.003849      0.140153
    4669.4008     94.081406     70.562439      2.705649     -0.003948      0.156480
    4669.5008    104.784927     71.220917      2.701108     -0.004522      0.173558
    4669.6008    113.696991     71.783157      2.696641     -0.005119      0.186370
    4669.7008    115.463150     72.183929      2.693257     -0.005812      0.188694
    4669.8008    106.384186     72.268600      2.692061     -0.006142      0.168952
    4669.9008     90.809494     72.095535      2.694982     -0.005653      0.143999
    4670.0008     77.695572     71.671844      2.701294     -0.003621      0.141942
    4670.1008     74.041077     71.079193      2.707364     -0.000044      0.162798
    4670.2008     77.971542     70.525101      2.705876      0.002615      0.166446
    4670.3008     84.779846     70.198349      2.696047      0.002225      0.152738
    4670.4008     94.447922     70.317444      2.686146      0.000240      0.148757
    4670.5008    106.019348     70.750610      2.687082     -0.000690      0.160949
    4670.6008    115.550583     71.474991      2.699568      0.000316      0.182517
    4670.7008    119.501999     72.386581      2.713277      0.001743      0.199571
    4670.8008    118.252182     73.304108      2.717154      0.001078      0.202140
    4670.9008    116.005112     74.152588      2.711171     -0.002171      0.196841
    4671.0008    115.340149     74.906158      2.699406     -0.006958      0.190636
    4671.1008    116.336716     75.475586      2.685544     -0.011549      0.184743
    4671.2008    118.655762     75.768143      2.675876     -0.014342      0.179871
    4671.3008    121.530899     75.788071      2.676336     -0.014160      0.178018
    4671.4008    121.724350     75.577087      2.685116     -0.011861      0.179872
    4671.5008    116.344116     75.140610      2.695301     -0.009232      0.178808
    4671.6008    108.066666     74.543076      2.700633     -0.007571      0.169015
    4671.7008    101.676300     73.890274      2.698943     -0.007053      0.158114
    4671.8008     98.952560     73.303970      2.690947     -0.007392      0.157360
    4671.9008     97.850739     72.801971      2.682232     -0.007724      0.162200
    4672.0008     96.753983     72.379028      2.679124     -0.006962      0.163888
    4672.1008     96.402039     72.067245      2.683693     -0.005092      0.162622
    4672.2008     98.220108     71.886215      2.689290     -0.003647      0.159266
    4672.3008    103.070740     71.854507      2.688652     -0.003951      0.153994
    4672.4008    109.596924     71.933258      2.682451     -0.005593      0.151035
    4672.5008    113.505585     72.008896      2.676033     -0.007325      0.152706
    4672.6008    110.712570     71.973343      2.672089     -0.008309      0.154999
    4672.7008    102.310883     71.798416      2.670619     -0.008237      0.151351
    4672.8008     93.579224     71.555405      2.671969     -0.006768      0.141684
    4672.9008     89.038361     71.360672      2.677353     -0.003636      0.132730
    4673.0008     89.333969     71.315750      2.686860      0.000390      0.130429
    4673.1008     91.877335     71.482361      2.694764      0.002880      0.136214
    4673.2008     94.070282     71.850723      2.693913      0.001783      0.145708
    4673.3008     96.228088     72.329788      2.685908     -0.002041      0.153433
    4673.4008    100.049011     72.807114      2.679029     -0.005813      0.159508
    4673.5008    105.331009     73.247665      2.677939     -0.007959      0.166517
    4673.6008    109.909653     73.676941      2.680643     -0.008829      0.173969
    4673.7008    112.418777     74.094376      2.684174     -0.009112      0.179976
    4673.8008    113.428711     74.458115      2.688398     -0.008818      0.183135
    4673.9008    113.896729     74.720306      2.692828     -0.007952      0.182426
    4674.0008    114.211456     74.851898      2.694465     -0.007080      0.179832
    4674.1008    114.605316     74.831009      2.690572     -0.006797      0.179798
    4674.2008    114.124680     74.633774      2.682321     -0.007020      0.182382
    4674.3008    110.534286     74.243301      2.675310     -0.007076      0.182090
    4674.4008    103.827530     73.635147      2.674471     -0.006416      0.173673
    4674.5008     97.326736     72.802979      2.678991     -0.005204      0.154540
    4674.6008     92.814743     71.822586      2.684453     -0.004063      0.126545
    4674.7008     88.422104     70.684311      2.686850     -0.003460      0.101859
    4674.8008     83.592300     69.355499      2.685163     -0.003441      0.096128
    4674.9008     79.995773     68.024185      2.682142     -0.003711      0.106725
    4675.0008     77.768555     66.836868      2.680429     -0.004141      0.115601
    4675.1008     75.631287     65.832687      2.678529     -0.005072      0.114391
    4675.2008     73.527603     65.076523      2.674028     -0.006802      0.110368
