# LAS format data
~Version Information
VERS.     2.00: CWLS LOG ASCII STANDARD - VERSION 2.0
WRAP.       NO: ONE LINE PER DEPTH STEP
~Well Information
#MNEM   .UNITS    DATA                           DESCRIPTION
#----   ------    ----                           -----------
STRT    .M        3928.0000                     :First Index Value
STOP    .M        64.9000                       :Last Index Value
STEP    .M        -0.1000                       :Frame Spacing
NULL    .         -999.2500                     :Absent Value
WELL    .         L07-01                        :Well Name
NAME	.         L07-01                        :Well Name   
FLD     .         UNKNOWN                       :Field Name  
CNTY    .                                       :County
STAT    .                                       :State
CTRY    .                                       :Country
LOC     .                                       :Location
API     .                                       :API Number
UWI     .         L07-01                        :UWI Number
DATE    .                                       :Date
COMP    .         PETROLAND                     :Company Name
SRVC    .                                       :Service Company
LATI    .DEG	53.722768                       :LATITUDE 
LONG    .DEG	4.796468                        :LONGITUDE 
~Parameter Information
#MNEM   .UNITS    VALUE                          DESCRIPTION
#----   ------    -----                          -----------
TDL     .M        3934.00000                    :Total Depth (Logger)
TDD     .M        3934.00000                    :Total Depth (Driller)   
UBID    .         7264                          :Unique Borehole Id  
PDAT    .         Mean Sea Level                :Permanent Datum 
EPD     .M           0.00000                    :Elevation of Permanent Datum (PDAT) above Mean Sea Level
LMF     .         Rotary Table                  :Logging Measured From (Name of Logging Elevation Reference) 
APD     .M          37.00000                    :Elevation of Depth Reference (LMF) Above Permanent Datum
EGL     .M         -36.00000                    :Elevation of Ground Level Above Mean Sea Level  
~Curve Information
#MNEM   .UNITS    API CODE                       CURVE DESCRIPTION
#----   ------    --------                       -----------------
DEPT    .M                                      :1     Index curve
GR      .GAPI                                   :2     L07-01
DT      .US/F                                   :3     L07-01
RHOB    .G/C3                                   :4     L07-01
NPHI    .V/V                                    :5     L07-01
~Ascii Log Data
# ...
     604.5001     87.952591    162.353607   -999.250000   -999.250000
     604.4001     86.518906    162.431641   -999.250000   -999.250000
     604.3001     84.526505    162.591309   -999.250000   -999.250000
     604.2001     82.328186    162.852112   -999.250000   -999.250000
     604.1001     80.265015    163.239105   -999.250000   -999.250000
     604.0001     78.468994    163.716309   -999.250000   -999.250000
     603.9001     76.933762    164.145386   -999.250000   -999.250000
     603.8001     76.124359    164.395874   -999.250000   -999.250000
     603.7001     76.050125    164.445923   -999.250000   -999.250000
     603.6001     76.158539    164.384308   -999.250000   -999.250000
     603.5001     75.180008    164.300232   -999.250000   -999.250000
     603.4001     72.960373    164.257416   -999.250000   -999.250000
     603.3001     70.546204    164.294159   -999.250000   -999.250000
     603.2001     68.671799    164.395477   -999.250000   -999.250000
     603.1001     67.817902    164.572693   -999.250000   -999.250000
     603.0001     68.052765    164.875427   -999.250000   -999.250000
     602.9001     68.872421    165.266144   -999.250000   -999.250000
     602.8001     69.671173    165.615326   -999.250000   -999.250000
     602.7001     70.487518    165.769867   -999.250000   -999.250000
     602.6001     71.222626    165.636169   -999.250000   -999.250000
     602.5001     71.687134    165.231293   -999.250000   -999.250000
     602.4001     71.790619    164.633698   -999.250000   -999.250000
     602.3001     71.600708    163.983887   -999.250000   -999.250000
     602.2001     71.552109    163.381042   -999.250000   -999.250000
     602.1001     72.262589    162.914185   -999.250000   -999.250000
     602.0001     73.581375    162.739410   -999.250000   -999.250000
     601.9001     74.755997    162.872101   -999.250000   -999.250000
     601.8001     75.963989    163.118683   -999.250000   -999.250000
     601.7001     77.457245    163.281342   -999.250000   -999.250000
     601.6001     79.466873    163.351837   -999.250000   -999.250000
     601.5001     82.103409    163.367218   -999.250000   -999.250000
     601.4001     84.919037    163.374481   -999.250000   -999.250000
     601.3001     86.739944    163.405731   -999.250000   -999.250000
     601.2001     88.275604    163.476471   -999.250000   -999.250000
     601.1001     89.764404    163.601349   -999.250000   -999.250000
     601.0001     90.460129    163.823608   -999.250000   -999.250000
     600.9001     90.708725    164.186157   -999.250000   -999.250000
     600.8001     90.803940    164.643036   -999.250000   -999.250000
     600.7001     90.778824    165.014130   -999.250000   -999.250000
     600.6001     90.835052    165.295929   -999.250000   -999.250000
     600.5001     91.251038    165.543488   -999.250000   -999.250000
     600.4001     91.761108    165.762299   -999.250000   -999.250000
     600.3001     92.260086    165.894226   -999.250000   -999.250000
     600.2001     92.463959    165.839172   -999.250000   -999.250000
     600.1001     92.166901    165.579102   -999.250000   -999.250000
     600.0001     91.472260    165.145844   -999.250000   -999.250000
     599.9001     90.764359    164.638580   -999.250000   -999.250000
     599.8001     90.177383    164.131317   -999.250000   -999.250000
     599.7001     89.966721    163.639740   -999.250000   -999.250000
     599.6001     90.759796    163.232452   -999.250000   -999.250000
     599.5001     91.952698    163.007477   -999.250000   -999.250000
     599.4001     93.072800    162.995789   -999.250000   -999.250000
     599.3001     92.726517    163.167175   -999.250000   -999.250000
     599.2001     92.303848    163.448517   -999.250000   -999.250000
     599.1001     92.311523    163.777405   -999.250000   -999.250000
     599.0001     93.399536    164.119568   -999.250000   -999.250000
     598.9001     94.592224    164.453888   -999.250000   -999.250000
     598.8001     95.621643    164.747925   -999.250000   -999.250000
     598.7001     96.625107    164.957886   -999.250000   -999.250000
     598.6001     97.521500    165.073059   -999.250000   -999.250000
     598.5001     97.946594    165.151337   -999.250000   -999.250000
     598.4001     97.384903    165.083221   -999.250000   -999.250000
     598.3001     96.452972    164.572784   -999.250000   -999.250000
     598.2001     95.387695    163.520325   -999.250000   -999.250000
     598.1001     94.163696    162.193481   -999.250000   -999.250000
     598.0001     93.381943    160.923065   -999.250000   -999.250000
     597.9001     93.493011    160.014099   -999.250000   -999.250000
     597.8001     93.584381    159.687042   -999.250000   -999.250000
     597.7001     93.632065    159.922516   -999.250000   -999.250000
     597.6001     93.586884    160.512299   -999.250000   -999.250000
     597.5001     93.452271    161.197876   -999.250000   -999.250000
     597.4001     93.213165    161.674347   -999.250000   -999.250000
     597.3001     92.867096    161.867828   -999.250000   -999.250000
     597.2001     92.548141    162.009460   -999.250000   -999.250000
     597.1001     92.285294    162.204956   -999.250000   -999.250000
     597.0001     92.373337    162.371094   -999.250000   -999.250000
     596.9001     93.295181    162.469513   -999.250000   -999.250000
     596.8001     94.628952    162.533905   -999.250000   -999.250000
     596.7001     95.662064    162.581787   -999.250000   -999.250000
     596.6001     96.444229    162.618530   -999.250000   -999.250000
     596.5001     97.025024    162.638519   -999.250000   -999.250000
     596.4001     97.522202    162.640228   -999.250000   -999.250000
     596.3001     97.985184    162.634644   -999.250000   -999.250000
     596.2001     99.016922    162.649231   -999.250000   -999.250000
     596.1001    100.694824    162.704712   -999.250000   -999.250000
     596.0001    101.662140    162.769928   -999.250000   -999.250000
     595.9001    101.511627    162.780640   -999.250000   -999.250000
     595.8001    100.749420    162.702698   -999.250000   -999.250000
     595.7001     99.912903    162.551544   -999.250000   -999.250000
     595.6001     98.526062    162.382507   -999.250000   -999.250000
     595.5001     96.315414    162.255341   -999.250000   -999.250000
     595.4001     94.358292    162.198181   -999.250000   -999.250000
     595.3001     93.340012    162.213501   -999.250000   -999.250000
     595.2001     93.142883    162.277649   -999.250000   -999.250000
     595.1001     93.804428    162.295258   -999.250000   -999.250000
     595.0001     94.908447    162.029083   -999.250000   -999.250000
     594.9001     95.763245    161.233215   -999.250000   -999.250000
     594.8001     95.930374    159.983215   -999.250000   -999.250000
     594.7001     95.270309    158.679443   -999.250000   -999.250000
     594.6001     94.014893    157.730469   -999.250000   -999.250000
     594.5001     92.409378    157.275330   -999.250000   -999.250000
     594.4001     90.824554    157.200958   -999.250000   -999.250000
     594.3001     89.587753    157.307617   -999.250000   -999.250000
     594.2001     89.363312    157.400421   -999.250000   -999.250000
     594.1001     89.901550    157.374146   -999.250000   -999.250000
     594.0001     90.378830    157.256104   -999.250000   -999.250000
     593.9001     90.423950    157.201813   -999.250000   -999.250000
     593.8001     89.952255    157.371460   -999.250000   -999.250000
     593.7001     88.971420    157.816620   -999.250000   -999.250000
     593.6001     88.099213    158.508850   -999.250000   -999.250000
     593.5001     87.885071    159.383972   -999.250000   -999.250000
     593.4001     88.368454    160.325653   -999.250000   -999.250000
     593.3001     89.172806    161.220856   -999.250000   -999.250000
     593.2001     89.781067    161.987549   -999.250000   -999.250000
     593.1001     89.878723    162.596466   -999.250000   -999.250000
