# LAS format data
~Version Information
VERS.     2.00: CWLS LOG ASCII STANDARD - VERSION 2.0
WRAP.       NO: ONE LINE PER DEPTH STEP
~Well Information
#MNEM   .UNITS    DATA                           DESCRIPTION
#----   ------    ----                           -----------
STRT    .M        0.1000                        :First Index Value
STOP    .M        4856.1008                     :Last Index Value
STEP    .M        -0.1000                       :Frame Spacing
NULL    .         -999.2500                     :Absent Value
WELL    .         L06-07                        :Well Name   
NAME	.         L06-07                        :Well Name   
FLD     .         L Block                       :Field Name  
CNTY    .                                       :County
STAT    .                                       :State
CTRY    .                                       :Country
LOC     .                                       :Location
API     .                                       :API Number
UWI     .         L06-07                        :UWI Number
DATE    .                                       :Date
COMP    .                                       :Company
SRVC    .                                       :Service Company
LATI    .DEG	53.706549                         :LATITUDE 
LONG    .DEG	4.898703                          :LONGITUDE 
~Parameter Information
#MNEM   .UNITS    VALUE                          DESCRIPTION
#----   ------    -----                          -----------
TDL     .M        4865.00000                    :Total Depth (Logger)
TDD     .M        4865.00000                    :Total Depth (Driller)   
UBID    .         8971                          :Unique Borehole Id  
PDAT    .         Mean Sea Level                :Permanent Datum 
EPD     .M           0.00000                    :Elevation of Permanent Datum (PDAT) above Mean Sea Level
LMF     .         Rotary Table                  :Logging Measured From (Name of Logging Elevation Reference) 
APD     .M          42.00000                    :Elevation of Depth Reference (LMF) Above Permanent Datum
~Curve Information
#MNEM   .UNITS    API CODE                       CURVE DESCRIPTION
#----   ------    --------                       -----------------
DEPT    .M                                      :1     Index curve
GR      .GAPI                                   :2     L06-07
DT      .US/F                                   :3     L06-07
RHOB    .G/C3                                   :4     L06-07
DRHO    .G/C3                                   :5     L06-07
NPHI    .V/V                                    :6     L06-07
~Ascii Log Data
# ...
    4387.3002     98.042984     79.670502      2.563932     -0.065566      0.229399
    4387.4002     97.497986     79.516174      2.579073     -0.060471      0.232180
    4387.5002     97.072876     79.277359      2.588756     -0.056527      0.224211
    4387.6002     96.224121     78.879379      2.587599     -0.055672      0.209193
    4387.7002     94.391418     78.290390      2.585708     -0.055787      0.195185
    4387.8002     91.796234     77.509949      2.597876     -0.053203      0.186848
    4387.9002     88.821823     76.579361      2.624357     -0.047049      0.180027
    4388.0002     84.465591     75.579361      2.651619     -0.039641      0.170326
    4388.1002     78.601059     74.666992      2.669012     -0.033770      0.158731
    4388.2002     74.209625     73.964081      2.677723     -0.030209      0.151222
    4388.3002     74.625595     73.499069      2.681771     -0.028138      0.151197
    4388.4002     79.841782     73.321136      2.680710     -0.026647      0.153656
    4388.5002     87.317978     73.462234      2.673705     -0.025266      0.153936
    4388.6002     94.770248     73.920898      2.661733     -0.024305      0.157954
    4388.7002    100.942825     74.703369      2.646832     -0.024418      0.174910
    4388.8002    104.980591     75.787445      2.632237     -0.026134      0.202491
    4388.9002    106.610352     77.091003      2.619431     -0.029599      0.225441
    4389.0002    107.199905     78.573532      2.607989     -0.034071      0.233387
    4389.1002    108.852646     80.193863      2.601321     -0.037735      0.234651
    4389.2002    112.263535     81.853088      2.602026     -0.039207      0.242921
    4389.3002    116.621735     83.388000      2.604821     -0.039111      0.255731
    4389.4002    120.438385     84.610809      2.602733     -0.039218      0.261867
    4389.5002    121.578445     85.412811      2.595995     -0.040478      0.260258
    4389.6002    118.443558     85.763046      2.590072     -0.042556      0.255966
    4389.7002    112.532364     85.718307      2.589093     -0.044495      0.250276
    4389.8002    107.309021     85.373047      2.593830     -0.045488      0.242654
    4389.9002    104.698776     84.845352      2.601266     -0.045414      0.237199
    4390.0002    104.711670     84.282547      2.605480     -0.044851      0.238370
    4390.1002    106.781647     83.825500      2.603423     -0.044582      0.241116
    4390.2002    109.849442     83.543304      2.597052     -0.045116      0.242071
    4390.3002    112.575882     83.465683      2.589552     -0.046544      0.247553
    4390.4002    114.041748     83.608856      2.583645     -0.048524      0.255554
    4390.5002    114.246689     83.889114      2.581191     -0.050161      0.256865
    4390.6002    113.877838     84.143707      2.583483     -0.050469      0.251816
    4390.7002    113.085342     84.213242      2.589775     -0.049293      0.243855
    4390.8002    110.757156     84.032272      2.594893     -0.047724      0.231630
    4390.9002    105.846680     83.588089      2.595678     -0.046817      0.217501
    4391.0002     99.352371     82.860504      2.596751     -0.046502      0.204565
    4391.1002     94.539978     81.952118      2.601408     -0.046514      0.193747
    4391.2002     93.324600     80.990784      2.605299     -0.047360      0.189447
    4391.3002     94.739410     80.126770      2.604187     -0.049464      0.195036
    4391.4002     96.670425     79.433548      2.599574     -0.052398      0.204904
    4391.5002     97.796249     78.951233      2.592885     -0.055637      0.211419
    4391.6002     97.823105     78.763550      2.584692     -0.059066      0.217311
    4391.7002     97.820419     78.869690      2.576574     -0.063038      0.224284
    4391.8002     98.867752     79.274124      2.568983     -0.068062      0.225701
    4391.9002    100.373260     79.871841      2.561040     -0.073728      0.221969
    4392.0002    102.194397     80.582840      2.554709     -0.078531      0.220824
    4392.1002    105.569031     81.302963      2.555377     -0.079737      0.226968
    4392.2002    109.661545     81.954163      2.562369     -0.078192      0.236909
    4392.3002    110.939346     82.554657      2.568192     -0.076349      0.245903
    4392.4002    108.095627     83.175964      2.568111     -0.076578      0.252668
    4392.5002    105.489975     83.863464      2.561797     -0.079502      0.249275
    4392.6002    107.079803     84.642410      2.548404     -0.085312      0.235830
    4392.7002    111.845734     85.459274      2.529607     -0.093455      0.225867
    4392.8002    115.783600     86.201508      2.509970     -0.101654      0.237579
    4392.9002    117.929886     86.764709      2.498406     -0.107487      0.260931
    4393.0002    119.295319     86.978210      2.499661     -0.109447      0.281906
    4393.1002    119.032166     86.860489      2.505543     -0.110552      0.281943
    4393.2002    115.076279     86.314346      2.501565     -0.114297      0.252702
    4393.3002    108.726334     85.290054      2.489371     -0.121224      0.201746
    4393.4002    102.408417     83.921616      2.477690     -0.129519      0.179016
    4393.5002     95.378891     82.222763      2.469998     -0.137132      0.212286
    4393.6002     87.315613     80.495941      2.468916     -0.142837      0.255783
    4393.7002     82.281738     78.844391      2.473351     -0.145144      0.257787
    4393.8002     84.540009     77.588104      2.472776     -0.147697      0.250985
    4393.9002     90.941071     76.797348      2.458106     -0.152485      0.243077
    4394.0002     96.918137     76.391434      2.440177     -0.158855      0.247357
    4394.1002    100.391022     76.599869      2.428971     -0.163779      0.240685
    4394.2002    101.807022     77.134201      2.423862     -0.166801      0.234218
    4394.3002    102.269409     77.921143      2.420722     -0.167293      0.226177
    4394.4002    103.295074     78.976013      2.422889     -0.164496      0.215022
    4394.5002    104.569946     80.021255      2.430225     -0.160725      0.214070
    4394.6002    104.980011     81.055740      2.434109     -0.158196      0.233965
    4394.7002    105.251038     81.930145      2.435892     -0.156191      0.236162
    4394.8002    106.083725     82.738571      2.440015     -0.153586      0.228836
    4394.9002    107.648651     83.442154      2.442428     -0.151203      0.229395
    4395.0002    109.947464     84.083389      2.443604     -0.149032      0.229232
    4395.1002    111.445877     84.705750      2.448600     -0.146981      0.225149
    4395.2002    112.334091     85.294235      2.458252     -0.143911      0.216029
    4395.3002    113.957672     85.703049      2.469341     -0.138551      0.214832
    4395.4002    114.920700     85.955414      2.479729     -0.131853      0.218097
    4395.5002    113.513672     85.965836      2.482704     -0.127264      0.221775
    4395.6002    111.153976     85.704773      2.474941     -0.128273      0.227567
    4395.7002    109.242981     85.249008      2.459167     -0.134635      0.236135
    4395.8002    106.412918     84.590500      2.442504     -0.143052      0.244250
    4395.9002    102.727478     83.867355      2.428568     -0.151776      0.233865
    4396.0002     99.835999     83.085922      2.416756     -0.159985      0.219411
    4396.1002     98.478561     82.204895      2.408811     -0.166575      0.211266
    4396.2002     97.580276     81.296555      2.407208     -0.170114      0.203939
    4396.3002     96.621841     80.448456      2.411664     -0.170162      0.212329
    4396.4002     96.169418     79.774765      2.418622     -0.168646      0.217186
    4396.5002     95.974792     79.270447      2.422921     -0.166801      0.216184
    4396.6002     95.889084     78.939651      2.424890     -0.164361      0.213847
    4396.7002     96.759262     78.787338      2.426830     -0.160402      0.227184
    4396.8002     98.936432     78.754715      2.435805     -0.152411      0.237468
