# LAS format data
~Version Information
VERS.     2.00: CWLS LOG ASCII STANDARD - VERSION 2.0
WRAP.       NO: ONE LINE PER DEPTH STEP
~Well Information
#MNEM   .UNITS    DATA                           DESCRIPTION
#----   ------    ----                           -----------
STRT    .M        3928.0000                     :First Index Value
STOP    .M        64.9000                       :Last Index Value
STEP    .M        -0.1000                       :Frame Spacing
NULL    .         -999.2500                     :Absent Value
WELL    .         L07-01                        :Well Name
NAME	.         L07-01                        :Well Name   
FLD     .         UNKNOWN                       :Field Name  
CNTY    .                                       :County
STAT    .                                       :State
CTRY    .                                       :Country
LOC     .                                       :Location
API     .                                       :API Number
UWI     .         L07-01                        :UWI Number
DATE    .                                       :Date
COMP    .         PETROLAND                     :Company Name
SRVC    .                                       :Service Company
LATI    .DEG	53.722768                       :LATITUDE 
LONG    .DEG	4.796468                        :LONGITUDE 
~Parameter Information
#MNEM   .UNITS    VALUE                          DESCRIPTION
#----   ------    -----                          -----------
TDL     .M        3934.00000                    :Total Depth (Logger)
TDD     .M        3934.00000                    :Total Depth (Driller)   
UBID    .         7264                          :Unique Borehole Id  
PDAT    .         Mean Sea Level                :Permanent Datum 
EPD     .M           0.00000                    :Elevation of Permanent Datum (PDAT) above Mean Sea Level
LMF     .         Rotary Table                  :Logging Measured From (Name of Logging Elevation Reference) 
APD     .M          37.00000                    :Elevation of Depth Reference (LMF) Above Permanent Datum
EGL     .M         -36.00000                    :Elevation of Ground Level Above Mean Sea Level  
~Curve Information
#MNEM   .UNITS    API CODE                       CURVE DESCRIPTION
#----   ------    --------                       -----------------
DEPT    .M                                      :1     Index curve
GR      .GAPI                                   :2     L07-01
DT      .US/F                                   :3     L07-01
RHOB    .G/C3                                   :4     L07-01
NPHI    .V/V                                    :5     L07-01
~Ascii Log Data
# ...
    3215.0002     19.575352     69.475922   -999.250000   -999.250000
    3214.9002     22.669842     69.586990   -999.250000   -999.250000
    3214.8002     28.319420     69.696350   -999.250000   -999.250000
    3214.7002     34.067505     69.787231   -999.250000   -999.250000
    3214.6002     38.643867     69.854187   -999.250000   -999.250000
    3214.5002     43.322334     69.921814   -999.250000   -999.250000
    3214.4002     48.169724     70.030807   -999.250000   -999.250000
    3214.3002     53.603020     70.191544   -999.250000   -999.250000
    3214.2002     59.399536     70.356567   -999.250000   -999.250000
    3214.1002     67.302887     70.438721   -999.250000   -999.250000
    3214.0002     79.078934     70.361633   -999.250000   -999.250000
    3213.9002     89.963058     70.033234   -999.250000   -999.250000
    3213.8002     98.329300     69.391602   -999.250000   -999.250000
    3213.7002    100.902939     68.450775   -999.250000   -999.250000
    3213.6002     99.742401     67.259598   -999.250000   -999.250000
    3213.5002     95.241943     66.007187   -999.250000   -999.250000
    3213.4002     87.768585     64.835037   -999.250000   -999.250000
    3213.3002     79.450684     63.903252   -999.250000   -999.250000
    3213.2002     70.476181     63.309151   -999.250000   -999.250000
    3213.1002     62.634857     63.150215   -999.250000   -999.250000
    3213.0002     56.720398     63.282265   -999.250000   -999.250000
    3212.9002     53.359085     63.537460   -999.250000   -999.250000
    3212.8002     53.069946     63.829758   -999.250000   -999.250000
    3212.7002     52.477592     64.119614   -999.250000   -999.250000
    3212.6001     51.662720     64.369278   -999.250000   -999.250000
    3212.5001     52.316368     64.535385   -999.250000   -999.250000
    3212.4001     53.875397     64.610764   -999.250000   -999.250000
    3212.3001     56.057922     64.607849   -999.250000   -999.250000
    3212.2001     57.545547     64.564102   -999.250000   -999.250000
    3212.1001     58.727814     64.539352   -999.250000   -999.250000
    3212.0001     59.472092     64.624542   -999.250000   -999.250000
    3211.9001     59.308197     65.134552   -999.250000   -999.250000
    3211.8001     57.120941     66.481476   -999.250000   -999.250000
    3211.7001     52.310104     68.390411   -999.250000   -999.250000
    3211.6001     47.854752     70.298874   -999.250000   -999.250000
    3211.5001     44.218163     71.813675   -999.250000   -999.250000
    3211.4001     41.812424     72.692245   -999.250000   -999.250000
    3211.3001     39.494385     72.886734   -999.250000   -999.250000
    3211.2001     36.806221     72.637726   -999.250000   -999.250000
    3211.1001     34.032089     72.123505   -999.250000   -999.250000
    3211.0001     33.190155     71.550507   -999.250000   -999.250000
    3210.9001     33.192833     71.070984   -999.250000   -999.250000
    3210.8001     33.457451     70.654907   -999.250000   -999.250000
    3210.7001     35.038788     70.319473   -999.250000   -999.250000
    3210.6001     36.942848     70.165955   -999.250000   -999.250000
    3210.5001     37.723915     70.271393   -999.250000   -999.250000
    3210.4001     37.227722     70.591125   -999.250000   -999.250000
    3210.3001     36.683395     71.014923   -999.250000   -999.250000
    3210.2001     37.050362     71.439682   -999.250000   -999.250000
    3210.1001     36.644402     71.765121   -999.250000   -999.250000
    3210.0001     35.461609     71.930222   -999.250000   -999.250000
    3209.9001     33.914009     71.906799   -999.250000   -999.250000
    3209.8001     32.088364     71.692200   -999.250000   -999.250000
    3209.7001     30.366291     71.372772   -999.250000   -999.250000
    3209.6001     29.338074     71.115295   -999.250000   -999.250000
    3209.5001     29.058083     70.941299   -999.250000   -999.250000
    3209.4001     29.819050     70.707977   -999.250000   -999.250000
    3209.3001     31.444626     70.376007   -999.250000   -999.250000
    3209.2001     33.230484     70.074432   -999.250000   -999.250000
    3209.1001     34.902199     70.036636   -999.250000   -999.250000
    3209.0001     36.365829     70.437180   -999.250000   -999.250000
    3208.9001     37.430695     71.250534   -999.250000   -999.250000
    3208.8001     37.869415     72.254364   -999.250000   -999.250000
    3208.7001     37.848572     73.264496   -999.250000   -999.250000
    3208.6001     37.875389     74.291245   -999.250000   -999.250000
    3208.5001     37.457283     75.386932   -999.250000   -999.250000
    3208.4001     36.314552     76.475983   -999.250000   -999.250000
    3208.3001     36.003395     77.393402   -999.250000   -999.250000
    3208.2001     37.374687     78.048874   -999.250000   -999.250000
    3208.1001     39.947289     78.496094   -999.250000   -999.250000
    3208.0001     43.653168     78.809433   -999.250000   -999.250000
    3207.9001     47.519485     79.013916   -999.250000   -999.250000
    3207.8001     50.358391     79.133102   -999.250000   -999.250000
    3207.7001     51.301445     79.266006   -999.250000   -999.250000
    3207.6001     50.174423     79.485733   -999.250000   -999.250000
    3207.5001     47.538948     79.660629   -999.250000   -999.250000
    3207.4001     45.888954     79.481888   -999.250000   -999.250000
    3207.3001     45.546112     78.773361   -999.250000   -999.250000
    3207.2001     44.850227     77.832779   -999.250000   -999.250000
    3207.1001     44.776360     77.165833   -999.250000   -999.250000
    3207.0001     46.073708     76.962143   -999.250000   -999.250000
    3206.9001     47.936356     77.216553   -999.250000   -999.250000
    3206.8001     50.878113     77.835617   -999.250000   -999.250000
    3206.7001     54.750275     78.487320   -999.250000   -999.250000
    3206.6001     58.220734     78.829117   -999.250000   -999.250000
    3206.5001     61.774506     78.688004   -999.250000   -999.250000
    3206.4001     65.529053     77.982620   -999.250000   -999.250000
    3206.3001     68.237640     76.881668   -999.250000   -999.250000
    3206.2001     69.595261     75.818329   -999.250000   -999.250000
    3206.1001     70.142456     75.229507   -999.250000   -999.250000
    3206.0001     70.098831     75.252258   -999.250000   -999.250000
    3205.9001     69.116837     75.793610   -999.250000   -999.250000
    3205.8001     67.061996     76.632111   -999.250000   -999.250000
    3205.7001     64.056763     77.442841   -999.250000   -999.250000
    3205.6001     61.000488     77.860138   -999.250000   -999.250000
    3205.5001     58.712982     77.601364   -999.250000   -999.250000
    3205.4001     55.918304     76.569366   -999.250000   -999.250000
    3205.3001     52.366577     75.029877   -999.250000   -999.250000
    3205.2001     49.227592     73.619156   -999.250000   -999.250000
    3205.1001     47.021072     72.897110   -999.250000   -999.250000
    3205.0001     46.337837     72.967178   -999.250000   -999.250000
    3204.9001     47.107773     73.503876   -999.250000   -999.250000
    3204.8001     49.348427     74.150970   -999.250000   -999.250000
    3204.7001     53.089478     74.608215   -999.250000   -999.250000
    3204.6001     57.492119     74.787582   -999.250000   -999.250000
    3204.5001     60.973373     74.730148   -999.250000   -999.250000
    3204.4001     61.714149     74.556183   -999.250000   -999.250000
    3204.3001     60.626602     74.524811   -999.250000   -999.250000
    3204.2001     58.331322     74.851974   -999.250000   -999.250000
    3204.1001     55.788460     75.395340   -999.250000   -999.250000
    3204.0001     53.725395     75.854919   -999.250000   -999.250000
    3203.9001     51.838432     75.980194   -999.250000   -999.250000
    3203.8001     50.130959     75.714127   -999.250000   -999.250000
    3203.7001     50.867714     75.143387   -999.250000   -999.250000
    3203.6001     52.739891     74.448578   -999.250000   -999.250000
