# LAS format data
~Version Information
VERS.     2.00: CWLS LOG ASCII STANDARD - VERSION 2.0
WRAP.       NO: ONE LINE PER DEPTH STEP
~Well Information
#MNEM   .UNITS    DATA                           DESCRIPTION
#----   ------    ----                           -----------
STRT    .M        3928.0000                     :First Index Value
STOP    .M        64.9000                       :Last Index Value
STEP    .M        -0.1000                       :Frame Spacing
NULL    .         -999.2500                     :Absent Value
WELL    .         L07-01                        :Well Name
NAME	.         L07-01                        :Well Name   
FLD     .         UNKNOWN                       :Field Name  
CNTY    .                                       :County
STAT    .                                       :State
CTRY    .                                       :Country
LOC     .                                       :Location
API     .                                       :API Number
UWI     .         L07-01                        :UWI Number
DATE    .                                       :Date
COMP    .         PETROLAND                     :Company Name
SRVC    .                                       :Service Company
LATI    .DEG	53.722768                       :LATITUDE 
LONG    .DEG	4.796468                        :LONGITUDE 
~Parameter Information
#MNEM   .UNITS    VALUE                          DESCRIPTION
#----   ------    -----                          -----------
TDL     .M        3934.00000                    :Total Depth (Logger)
TDD     .M        3934.00000                    :Total Depth (Driller)   
UBID    .         7264                          :Unique Borehole Id  
PDAT    .         Mean Sea Level                :Permanent Datum 
EPD     .M           0.00000                    :Elevation of Permanent Datum (PDAT) above Mean Sea Level
LMF     .         Rotary Table                  :Logging Measured From (Name of Logging Elevation Reference) 
APD     .M          37.00000                    :Elevation of Depth Reference (LMF) Above Permanent Datum
EGL     .M         -36.00000                    :Elevation of Ground Level Above Mean Sea Level  
~Curve Information
#MNEM   .UNITS    API CODE                       CURVE DESCRIPTION
#----   ------    --------                       -----------------
DEPT    .M                                      :1     Index curve
GR      .GAPI                                   :2     L07-01
DT      .US/F                                   :3     L07-01
RHOB    .G/C3                                   :4     L07-01
NPHI    .V/V                                    :5     L07-01
~Ascii Log Data
# ...
     846.0001     53.974228    172.465332   -999.250000   -999.250000
     845.9001     53.667198    171.347076   -999.250000   -999.250000
     845.8001     53.357460    170.496643   -999.250000   -999.250000
     845.7001     53.034790    169.838074   -999.250000   -999.250000
     845.6001     52.766441    169.222687   -999.250000   -999.250000
     845.5001     53.040970    168.484009   -999.250000   -999.250000
     845.4001     53.658188    167.578369   -999.250000   -999.250000
     845.3001     53.918022    166.668671   -999.250000   -999.250000
     845.2001     54.179070    166.091949   -999.250000   -999.250000
     845.1001     54.447144    166.043030   -999.250000   -999.250000
     845.0001     54.116058    166.394226   -999.250000   -999.250000
     844.9001     53.011505    166.908478   -999.250000   -999.250000
     844.8001     51.613419    167.443665   -999.250000   -999.250000
     844.7001     50.867332    167.870605   -999.250000   -999.250000
     844.6001     51.104156    168.098297   -999.250000   -999.250000
     844.5001     52.210152    168.071045   -999.250000   -999.250000
     844.4001     53.469673    167.803650   -999.250000   -999.250000
     844.3001     54.424156    167.439331   -999.250000   -999.250000
     844.2001     54.821754    167.239746   -999.250000   -999.250000
     844.1001     55.219574    167.440948   -999.250000   -999.250000
     844.0001     55.590195    168.024231   -999.250000   -999.250000
     843.9001     55.662048    168.669891   -999.250000   -999.250000
     843.8001     55.435478    168.948395   -999.250000   -999.250000
     843.7001     55.164749    168.313538   -999.250000   -999.250000
     843.6001     55.342232    166.628357   -999.250000   -999.250000
     843.5001     55.551758    164.336761   -999.250000   -999.250000
     843.4001     55.483688    162.049652   -999.250000   -999.250000
     843.3001     54.754852    160.610962   -999.250000   -999.250000
     843.2001     53.270187    159.923523   -999.250000   -999.250000
     843.1001     50.745163    158.624573   -999.250000   -999.250000
     843.0001     47.629395    155.387512   -999.250000   -999.250000
     842.9001     44.681396    150.809998   -999.250000   -999.250000
     842.8001     42.605080    148.497040   -999.250000   -999.250000
     842.7001     41.456467    149.382111   -999.250000   -999.250000
     842.6001     41.062981    152.136169   -999.250000   -999.250000
     842.5001     41.478226    153.928101   -999.250000   -999.250000
     842.4001     42.008316    154.021851   -999.250000   -999.250000
     842.3001     43.320992    153.042023   -999.250000   -999.250000
     842.2001     46.027237    152.425171   -999.250000   -999.250000
     842.1001     48.203354    152.866394   -999.250000   -999.250000
     842.0001     49.643440    153.227509   -999.250000   -999.250000
     841.9001     49.732285    151.354370   -999.250000   -999.250000
     841.8001     48.554382    148.654053   -999.250000   -999.250000
     841.7001     46.957893    146.534729   -999.250000   -999.250000
     841.6001     46.560783    146.617798   -999.250000   -999.250000
     841.5001     47.024818    148.740082   -999.250000   -999.250000
     841.4001     47.843300    151.417725   -999.250000   -999.250000
     841.3001     47.807213    153.933533   -999.250000   -999.250000
     841.2001     47.772705    155.834351   -999.250000   -999.250000
     841.1001     47.737480    156.866241   -999.250000   -999.250000
     841.0001     47.656219    157.411346   -999.250000   -999.250000
     840.9001     47.403938    156.571869   -999.250000   -999.250000
     840.8001     47.202118    155.616150   -999.250000   -999.250000
     840.7001     47.455605    157.607330   -999.250000   -999.250000
     840.6001     46.870621    162.230347   -999.250000   -999.250000
     840.5001     45.460220    165.956604   -999.250000   -999.250000
     840.4001     44.467339    164.240143   -999.250000   -999.250000
     840.3001     44.065056    156.921631   -999.250000   -999.250000
     840.2001     44.260124    151.010498   -999.250000   -999.250000
     840.1001     44.373291    148.873474   -999.250000   -999.250000
     840.0001     44.372017    148.325043   -999.250000   -999.250000
     839.9001     44.324257    148.418549   -999.250000   -999.250000
     839.8001     44.467834    148.839813   -999.250000   -999.250000
     839.7001     44.644806    149.230835   -999.250000   -999.250000
     839.6001     44.695251    149.546448   -999.250000   -999.250000
     839.5001     44.517723    150.196320   -999.250000   -999.250000
     839.4001     44.335655    151.705536   -999.250000   -999.250000
     839.3001     44.412910    155.003906   -999.250000   -999.250000
     839.2001     44.840965    159.973389   -999.250000   -999.250000
     839.1001     45.426239    164.606995   -999.250000   -999.250000
     839.0001     46.011360    167.686707   -999.250000   -999.250000
     838.9001     46.546318    168.063751   -999.250000   -999.250000
     838.8001     46.548813    166.033478   -999.250000   -999.250000
     838.7001     45.883286    163.247925   -999.250000   -999.250000
     838.6001     45.337128    160.816589   -999.250000   -999.250000
     838.5001     45.067253    159.106262   -999.250000   -999.250000
     838.4001     44.943207    157.777710   -999.250000   -999.250000
     838.3001     44.684181    156.680969   -999.250000   -999.250000
     838.2001     44.235565    156.158722   -999.250000   -999.250000
     838.1001     43.702011    156.680206   -999.250000   -999.250000
     838.0001     43.254692    158.392944   -999.250000   -999.250000
     837.9001     43.721573    160.649719   -999.250000   -999.250000
     837.8001     45.223305    162.778992   -999.250000   -999.250000
     837.7001     46.692772    164.604980   -999.250000   -999.250000
     837.6001     47.816284    165.917725   -999.250000   -999.250000
     837.5001     48.782227    165.951172   -999.250000   -999.250000
     837.4001     49.784912    163.723541   -999.250000   -999.250000
     837.3001     50.652321    159.774078   -999.250000   -999.250000
     837.2001     51.195877    156.202179   -999.250000   -999.250000
     837.1001     51.426743    154.343018   -999.250000   -999.250000
     837.0001     51.008972    153.818665   -999.250000   -999.250000
     836.9001     49.994453    154.084686   -999.250000   -999.250000
     836.8001     49.069984    155.313354   -999.250000   -999.250000
     836.7001     48.746269    157.039581   -999.250000   -999.250000
     836.6001     48.846138    157.783508   -999.250000   -999.250000
     836.5001     48.613892    156.355896   -999.250000   -999.250000
     836.4001     48.235649    152.897766   -999.250000   -999.250000
     836.3001     48.275703    149.024780   -999.250000   -999.250000
     836.2001     48.715988    146.114349   -999.250000   -999.250000
     836.1001     49.184708    144.391388   -999.250000   -999.250000
     836.0001     49.445580    143.491547   -999.250000   -999.250000
     835.9001     49.550163    143.149567   -999.250000   -999.250000
     835.8001     49.605263    143.275726   -999.250000   -999.250000
     835.7001     49.585327    143.693665   -999.250000   -999.250000
     835.6001     48.659126    143.976227   -999.250000   -999.250000
     835.5001     46.721977    143.752045   -999.250000   -999.250000
     835.4001     44.506577    143.133820   -999.250000   -999.250000
     835.3001     43.118683    142.509003   -999.250000   -999.250000
     835.2001     42.781708    142.082489   -999.250000   -999.250000
     835.1001     42.723259    141.789398   -999.250000   -999.250000
     835.0001     42.837006    141.532410   -999.250000   -999.250000
     834.9001     43.107407    141.367371   -999.250000   -999.250000
     834.8001     43.309853    141.615540   -999.250000   -999.250000
     834.7001     43.235626    142.722198   -999.250000   -999.250000
     834.6001     42.900352    144.625763   -999.250000   -999.250000
