# LAS format data
~Version Information
VERS.     2.00: CWLS LOG ASCII STANDARD - VERSION 2.0
WRAP.       NO: ONE LINE PER DEPTH STEP
~Well Information
#MNEM   .UNITS    DATA                           DESCRIPTION
#----   ------    ----                           -----------
STRT    .M        3928.0000                     :First Index Value
STOP    .M        64.9000                       :Last Index Value
STEP    .M        -0.1000                       :Frame Spacing
NULL    .         -999.2500                     :Absent Value
WELL    .         L07-01                        :Well Name
NAME	.         L07-01                        :Well Name   
FLD     .         UNKNOWN                       :Field Name  
CNTY    .                                       :County
STAT    .                                       :State
CTRY    .                                       :Country
LOC     .                                       :Location
API     .                                       :API Number
UWI     .         L07-01                        :UWI Number
DATE    .                                       :Date
COMP    .         PETROLAND                     :Company Name
SRVC    .                                       :Service Company
LATI    .DEG	53.722768                       :LATITUDE 
LONG    .DEG	4.796468                        :LONGITUDE 
~Parameter Information
#MNEM   .UNITS    VALUE                          DESCRIPTION
#----   ------    -----                          -----------
TDL     .M        3934.00000                    :Total Depth (Logger)
TDD     .M        3934.00000                    :Total Depth (Driller)   
UBID    .         7264                          :Unique Borehole Id  
PDAT    .         Mean Sea Level                :Permanent Datum 
EPD     .M           0.00000                    :Elevation of Permanent Datum (PDAT) above Mean Sea Level
LMF     .         Rotary Table                  :Logging Measured From (Name of Logging Elevation Reference) 
APD     .M          37.00000                    :Elevation of Depth Reference (LMF) Above Permanent Datum
EGL     .M         -36.00000                    :Elevation of Ground Level Above Mean Sea Level  
~Curve Information
#MNEM   .UNITS    API CODE                       CURVE DESCRIPTION
#----   ------    --------                       -----------------
DEPT    .M                                      :1     Index curve
GR      .GAPI                                   :2     L07-01
DT      .US/F                                   :3     L07-01
RHOB    .G/C3                                   :4     L07-01
NPHI    .V/V                                    :5     L07-01
~Ascii Log Data
# ...
    3916.5000   -999.250000   -999.250000   -999.250000   -999.250000
    3916.4000   -999.250000   -999.250000   -999.250000   -999.250000
    3916.3000   -999.250000   -999.250000   -999.250000   -999.250000
    3916.2000   -999.250000   -999.250000   -999.250000   -999.250000
    3916.1000   -999.250000   -999.250000   -999.250000   -999.250000
    3916.0000   -999.250000   -999.250000   -999.250000   -999.250000
    3915.9000   -999.250000   -999.250000   -999.250000   -999.250000
    3915.8000    122.553802     64.379776      2.644257      0.169934
    3915.7000    115.726624     63.197090      2.642402      0.169571
    3915.6000    110.467072     62.798241      2.643563      0.169327
    3915.5000    107.652710     62.943977      2.651648      0.165392
    3915.4000    106.274506     63.456696      2.662200      0.152283
    3915.3000    106.462662     64.146286      2.671766      0.135434
    3915.2000    108.108566     64.902924      2.678474      0.122410
    3915.1000    110.322037     65.735016      2.683295      0.114615
    3915.0000    112.750443     66.669373      2.685328      0.113641
    3914.9000    115.101288     67.686020      2.683579      0.117726
    3914.8000    117.240662     68.698685      2.678157      0.122381
    3914.7000    119.028671     69.643845      2.674752      0.125797
    3914.6000    120.244705     70.524780      2.674784      0.128013
    3914.5000    120.707581     71.381226      2.671692      0.129964
    3914.4000    120.120010     72.245041      2.674881      0.135483
    3914.3000    119.192154     73.086960      2.689279      0.145471
    3914.2000    119.439972     73.745361      2.705035      0.156624
    3914.1000    121.550705     74.055496      2.714981      0.170121
    3914.0000    124.680969     74.045441      2.720157      0.185911
    3913.9000    127.423798     73.866455      2.726121      0.199710
    3913.8000    129.367401     73.647552      2.730573      0.209216
    3913.7000    130.553802     73.480026      2.731914      0.215779
    3913.6000    130.303070     73.440308      2.737364      0.221904
    3913.5000    129.005035     73.459732      2.740958      0.227517
    3913.4000    127.540802     73.243225      2.734794      0.231443
    3913.3000    125.701859     72.572266      2.721818      0.232307
    3913.2000    123.669357     71.559464      2.707522      0.232016
    3913.1000    122.033585     70.568176      2.694887      0.232640
    3913.0000    121.560349     70.142822      2.687262      0.231053
    3912.9000    122.046021     70.577805      2.689872      0.225530
    3912.8000    122.611435     71.481110      2.702394      0.218103
    3912.7000    122.569321     72.174866      2.707283      0.214440
    3912.6000    121.277405     72.357651      2.698795      0.216244
    3912.5000    118.559494     71.866608      2.686975      0.220313
    3912.4000    115.351898     70.537430      2.682626      0.220195
    3912.3000    111.769424     68.546600      2.686674      0.212709
    3912.2000    107.097809     66.439499      2.692176      0.200101
    3912.1000    102.962265     64.807236      2.700844      0.186439
    3912.0000    101.493973     63.902596      2.712258      0.173106
    3911.9000    103.297424     63.728493      2.720428      0.158422
    3911.8000    106.289474     64.138611      2.717371      0.144442
    3911.7000    108.557281     65.015472      2.703021      0.133929
    3911.6000    110.997482     66.272263      2.689466      0.126813
    3911.5000    112.943115     67.879974      2.684506      0.122731
    3911.4000    113.626724     69.799484      2.688004      0.121720
    3911.3000    113.980835     71.707077      2.689014      0.125077
    3911.2000    114.050598     73.098389      2.687737      0.131035
    3911.1000    113.766785     73.558640      2.683791      0.138747
    3911.0000    113.666901     73.003311      2.663733      0.155415
    3910.9000    114.309769     71.759033      2.646806      0.178719
    3910.8000    115.750351     70.367340      2.664324      0.198175
    3910.7000    116.914398     69.039841      2.684096      0.217223
    3910.6000    117.105591     67.982956      2.685616      0.233244
    3910.5000    116.487320     67.773727      2.667158      0.237768
    3910.4000    116.313461     68.595627      2.649849      0.230282
    3910.3000    117.154770     70.121521      2.647615      0.212530
    3910.2000    118.216721     71.374344      2.660380      0.198034
    3910.1000    118.770401     71.593048      2.677552      0.190924
    3910.0000    118.136475     70.579025      2.690061      0.190890
    3909.9000    116.469986     68.589401      2.695060      0.184000
    3909.8000    112.527344     66.226257      2.704212      0.174941
    3909.7000    105.260910     64.156952      2.719110      0.166106
    3909.6000     98.264511     62.761467      2.710126      0.152814
    3909.5000     94.136414     62.492653      2.687476      0.137225
    3909.4000     96.240295     64.120667      2.666261      0.122632
    3909.3000     99.546082     67.908859      2.662092      0.111449
    3909.2000    103.294632     72.628448      2.649480      0.103068
    3909.1000    106.530670     76.974152      2.595265      0.099424
    3909.0000    111.194962     80.261765      2.551827      0.103890
    3908.9000    115.976685     81.853271      2.524335      0.116727
    3908.8000    118.532303     81.431320      2.517156      0.138519
    3908.7000    120.995926     78.617691      2.499106      0.161975
    3908.6000    123.285965     73.772736      2.472261      0.187013
    3908.5000    125.489212     69.061417      2.452145      0.213094
    3908.4000    128.045258     65.750107      2.474550      0.232997
    3908.3000    130.395416     64.483444      2.526696      0.245084
    3908.2000    131.200043     64.113831      2.550531      0.250773
    3908.1000    131.932068     64.140808      2.561902      0.251799
    3908.0000    132.729919     64.513626      2.574309      0.245480
    3907.9000    133.350098     65.280258      2.619289      0.228227
    3907.8000    133.100067     65.988678      2.638403      0.209539
    3907.7000    131.732697     65.987350      2.629686      0.191262
    3907.6000    129.894379     65.501572      2.645927      0.173605
    3907.5000    127.917511     64.828049      2.654517      0.157817
    3907.4000    125.748718     64.121017      2.648637      0.144663
    3907.3000    123.329697     63.502098      2.652218      0.134109
    3907.2000    120.741562     63.012077      2.654335      0.124631
    3907.1000    117.681351     62.704132      2.650055      0.116454
    3907.0000    113.875000     62.512573      2.645795      0.111300
    3906.9000    110.122803     62.416855      2.650825      0.107089
    3906.8000    107.095642     62.424469      2.671500      0.102922
    3906.7000    105.311310     62.514038      2.690378      0.099851
    3906.6000    104.633423     62.641258      2.699115      0.098119
    3906.5000    105.315109     62.769775      2.691350      0.098332
    3906.4000    106.950714     62.875031      2.681367      0.099883
    3906.3000    108.507492     62.968361      2.675561      0.101527
    3906.2000    108.878830     63.093742      2.677653      0.101688
    3906.1000    108.625397     63.406975      2.676808      0.100356
    3906.0000    109.462662     64.291595      2.677851      0.098954
    3905.9000    112.999527     65.776962      2.683042      0.100266
    3905.8000    117.509552     67.432877      2.682556      0.105610
    3905.7000    122.937988     69.054489      2.680872      0.111833
    3905.6000    128.880859     70.526978      2.681865      0.115815
    3905.5000    134.458191     72.015198      2.679075      0.120483
    3905.4000    138.065155     73.566437      2.673869      0.127492
    3905.3000    138.793091     74.939285      2.672712      0.137686
    3905.2000    138.351562     75.778427      2.681477      0.149272
    3905.1000    137.678864     75.978912      2.689880      0.160788
