# LAS format data
~Version Information
VERS.     2.00: CWLS LOG ASCII STANDARD - VERSION 2.0
WRAP.       NO: ONE LINE PER DEPTH STEP
~Well Information
#MNEM   .UNITS    DATA                           DESCRIPTION
#----   ------    ----                           -----------
STRT    .M        3928.0000                     :First Index Value
STOP    .M        64.9000                       :Last Index Value
STEP    .M        -0.1000                       :Frame Spacing
NULL    .         -999.2500                     :Absent Value
WELL    .         L07-01                        :Well Name
NAME	.         L07-01                        :Well Name   
FLD     .         UNKNOWN                       :Field Name  
CNTY    .                                       :County
STAT    .                                       :State
CTRY    .                                       :Country
LOC     .                                       :Location
API     .                                       :API Number
UWI     .         L07-01                        :UWI Number
DATE    .                                       :Date
COMP    .         PETROLAND                     :Company Name
SRVC    .                                       :Service Company
LATI    .DEG	53.722768                       :LATITUDE 
LONG    .DEG	4.796468                        :LONGITUDE 
~Parameter Information
#MNEM   .UNITS    VALUE                          DESCRIPTION
#----   ------    -----                          -----------
TDL     .M        3934.00000                    :Total Depth (Logger)
TDD     .M        3934.00000                    :Total Depth (Driller)   
UBID    .         7264                          :Unique Borehole Id  
PDAT    .         Mean Sea Level                :Permanent Datum 
EPD     .M           0.00000                    :Elevation of Permanent Datum (PDAT) above Mean Sea Level
LMF     .         Rotary Table                  :Logging Measured From (Name of Logging Elevation Reference) 
APD     .M          37.00000                    :Elevation of Depth Reference (LMF) Above Permanent Datum
EGL     .M         -36.00000                    :Elevation of Ground Level Above Mean Sea Level  
~Curve Information
#MNEM   .UNITS    API CODE                       CURVE DESCRIPTION
#----   ------    --------                       -----------------
DEPT    .M                                      :1     Index curve
GR      .GAPI                                   :2     L07-01
DT      .US/F                                   :3     L07-01
RHOB    .G/C3                                   :4     L07-01
NPHI    .V/V                                    :5     L07-01
~Ascii Log Data
# ...
    1076.0000     61.826607    140.552338   -999.250000   -999.250000
    1075.9000     62.095459    141.359406   -999.250000   -999.250000
    1075.8000     62.936920    142.772766   -999.250000   -999.250000
    1075.7000     63.707634    143.909119   -999.250000   -999.250000
    1075.6000     64.370941    144.335449   -999.250000   -999.250000
    1075.5000     64.703125    144.474243   -999.250000   -999.250000
    1075.4000     64.527466    144.514801   -999.250000   -999.250000
    1075.3000     64.516479    144.327087   -999.250000   -999.250000
    1075.2000     64.494583    143.922882   -999.250000   -999.250000
    1075.1000     63.624054    143.520355   -999.250000   -999.250000
    1075.0000     62.481934    143.356354   -999.250000   -999.250000
    1074.9000     61.374359    143.328705   -999.250000   -999.250000
    1074.8000     60.602173    143.466705   -999.250000   -999.250000
    1074.7000     60.069145    143.821655   -999.250000   -999.250000
    1074.6000     59.779732    144.257202   -999.250000   -999.250000
    1074.5000     59.633751    144.410553   -999.250000   -999.250000
    1074.4000     60.111183    144.113281   -999.250000   -999.250000
    1074.3000     61.792068    143.581451   -999.250000   -999.250000
    1074.2000     64.060349    143.209778   -999.250000   -999.250000
    1074.1000     65.933701    143.105438   -999.250000   -999.250000
    1074.0000     66.431519    143.131348   -999.250000   -999.250000
    1073.9000     66.700760    143.149384   -999.250000   -999.250000
    1073.8000     66.409073    142.987366   -999.250000   -999.250000
    1073.7000     65.006668    142.570587   -999.250000   -999.250000
    1073.6000     63.325363    141.826294   -999.250000   -999.250000
    1073.5000     61.627365    140.925507   -999.250000   -999.250000
    1073.4000     60.357262    140.027679   -999.250000   -999.250000
    1073.3000     59.649948    139.387390   -999.250000   -999.250000
    1073.2000     59.562309    138.996948   -999.250000   -999.250000
    1073.1000     60.121529    138.804321   -999.250000   -999.250000
    1073.0000     60.308723    138.667084   -999.250000   -999.250000
    1072.9000     60.330246    138.364746   -999.250000   -999.250000
    1072.8000     60.928535    137.721741   -999.250000   -999.250000
    1072.7000     62.192863    136.779999   -999.250000   -999.250000
    1072.6000     63.623924    135.721802   -999.250000   -999.250000
    1072.5000     63.603920    134.924774   -999.250000   -999.250000
    1072.4000     63.694511    134.606598   -999.250000   -999.250000
    1072.3000     63.891464    134.377716   -999.250000   -999.250000
    1072.2000     63.604118    134.326263   -999.250000   -999.250000
    1072.1000     63.643471    134.921875   -999.250000   -999.250000
    1072.0000     64.139618    136.437439   -999.250000   -999.250000
    1071.9000     64.504257    138.532501   -999.250000   -999.250000
    1071.8000     64.702408    141.130615   -999.250000   -999.250000
    1071.7000     64.606705    144.087006   -999.250000   -999.250000
    1071.6000     64.223068    147.183899   -999.250000   -999.250000
    1071.5000     64.007584    149.978882   -999.250000   -999.250000
    1071.4000     64.171463    151.407654   -999.250000   -999.250000
    1071.3000     64.424408    151.325378   -999.250000   -999.250000
    1071.2000     64.767731    150.157959   -999.250000   -999.250000
    1071.1000     65.158951    148.407074   -999.250000   -999.250000
    1071.0000     65.451920    146.806793   -999.250000   -999.250000
    1070.9000     65.557861    146.024414   -999.250000   -999.250000
    1070.8000     65.623856    146.315735   -999.250000   -999.250000
    1070.7000     66.088989    147.290985   -999.250000   -999.250000
    1070.6000     66.969635    148.324829   -999.250000   -999.250000
    1070.5000     68.055603    148.958923   -999.250000   -999.250000
    1070.4000     68.957520    149.035614   -999.250000   -999.250000
    1070.3000     69.031052    148.456940   -999.250000   -999.250000
    1070.2000     68.067230    147.313812   -999.250000   -999.250000
    1070.1000     66.845657    145.946198   -999.250000   -999.250000
    1070.0000     65.903076    144.781555   -999.250000   -999.250000
    1069.9000     65.449005    144.155090   -999.250000   -999.250000
    1069.8000     65.172699    144.159363   -999.250000   -999.250000
    1069.7000     64.820847    144.625854   -999.250000   -999.250000
    1069.6000     64.277954    145.252441   -999.250000   -999.250000
    1069.5000     63.645721    145.710876   -999.250000   -999.250000
    1069.4000     63.672020    145.834045   -999.250000   -999.250000
    1069.3000     64.555328    145.630371   -999.250000   -999.250000
    1069.2000     65.499222    145.158173   -999.250000   -999.250000
    1069.1000     66.066040    144.488678   -999.250000   -999.250000
    1069.0000     66.112244    143.764618   -999.250000   -999.250000
    1068.9000     65.391418    143.130585   -999.250000   -999.250000
    1068.8000     63.942818    142.675079   -999.250000   -999.250000
    1068.7000     62.179893    142.453583   -999.250000   -999.250000
    1068.6000     60.387024    142.488892   -999.250000   -999.250000
    1068.5000     58.844604    142.756317   -999.250000   -999.250000
    1068.4000     57.707489    143.219513   -999.250000   -999.250000
    1068.3000     56.977013    143.809967   -999.250000   -999.250000
    1068.2000     56.980003    144.351288   -999.250000   -999.250000
    1068.1000     57.800743    144.712433   -999.250000   -999.250000
    1068.0000     59.002884    144.930542   -999.250000   -999.250000
    1067.9000     59.946487    145.149597   -999.250000   -999.250000
    1067.8000     60.312241    145.520569   -999.250000   -999.250000
    1067.7000     59.860359    146.115997   -999.250000   -999.250000
    1067.6000     58.865211    146.776917   -999.250000   -999.250000
    1067.5000     57.849098    147.167633   -999.250000   -999.250000
    1067.4000     57.147522    147.020172   -999.250000   -999.250000
    1067.3000     56.741180    146.312866   -999.250000   -999.250000
    1067.2000     56.410385    145.284607   -999.250000   -999.250000
    1067.1000     56.289474    144.343964   -999.250000   -999.250000
    1067.0000     56.463623    143.811615   -999.250000   -999.250000
    1066.9000     56.800201    143.689392   -999.250000   -999.250000
    1066.8000     56.958115    143.762085   -999.250000   -999.250000
    1066.7000     56.826256    143.902435   -999.250000   -999.250000
    1066.6000     56.660469    144.071869   -999.250000   -999.250000
    1066.5000     56.732391    144.210358   -999.250000   -999.250000
    1066.4001     57.160896    144.255341   -999.250000   -999.250000
    1066.3001     57.829277    144.171814   -999.250000   -999.250000
    1066.2001     58.515495    143.986237   -999.250000   -999.250000
    1066.1001     58.990433    143.850403   -999.250000   -999.250000
    1066.0001     59.255470    143.975586   -999.250000   -999.250000
    1065.9001     59.204117    144.320496   -999.250000   -999.250000
    1065.8001     58.859673    144.535217   -999.250000   -999.250000
    1065.7001     58.578819    144.259644   -999.250000   -999.250000
    1065.6001     58.658684    143.396942   -999.250000   -999.250000
    1065.5001     59.133614    142.007660   -999.250000   -999.250000
    1065.4001     59.535324    140.263092   -999.250000   -999.250000
    1065.3001     59.383102    138.294983   -999.250000   -999.250000
    1065.2001     58.550446    136.331757   -999.250000   -999.250000
    1065.1001     57.767509    134.809113   -999.250000   -999.250000
    1065.0001     57.420395    134.217438   -999.250000   -999.250000
    1064.9001     57.255531    134.704163   -999.250000   -999.250000
    1064.8001     57.393028    135.991699   -999.250000   -999.250000
    1064.7001     57.898468    137.287964   -999.250000   -999.250000
    1064.6001     58.282288    137.824310   -999.250000   -999.250000
