# LAS format data
~Version Information
VERS.     2.00: CWLS LOG ASCII STANDARD - VERSION 2.0
WRAP.       NO: ONE LINE PER DEPTH STEP
~Well Information
#MNEM   .UNITS    DATA                           DESCRIPTION
#----   ------    ----                           -----------
STRT    .M        0.1000                        :First Index Value
STOP    .M        4856.1008                     :Last Index Value
STEP    .M        -0.1000                       :Frame Spacing
NULL    .         -999.2500                     :Absent Value
WELL    .         L06-07                        :Well Name   
NAME	.         L06-07                        :Well Name   
FLD     .         L Block                       :Field Name  
CNTY    .                                       :County
STAT    .                                       :State
CTRY    .                                       :Country
LOC     .                                       :Location
API     .                                       :API Number
UWI     .         L06-07                        :UWI Number
DATE    .                                       :Date
COMP    .                                       :Company
SRVC    .                                       :Service Company
LATI    .DEG	53.706549                         :LATITUDE 
LONG    .DEG	4.898703                          :LONGITUDE 
~Parameter Information
#MNEM   .UNITS    VALUE                          DESCRIPTION
#----   ------    -----                          -----------
TDL     .M        4865.00000                    :Total Depth (Logger)
TDD     .M        4865.00000                    :Total Depth (Driller)   
UBID    .         8971                          :Unique Borehole Id  
PDAT    .         Mean Sea Level                :Permanent Datum 
EPD     .M           0.00000                    :Elevation of Permanent Datum (PDAT) above Mean Sea Level
LMF     .         Rotary Table                  :Logging Measured From (Name of Logging Elevation Reference) 
APD     .M          42.00000                    :Elevation of Depth Reference (LMF) Above Permanent Datum
~Curve Information
#MNEM   .UNITS    API CODE                       CURVE DESCRIPTION
#----   ------    --------                       -----------------
DEPT    .M                                      :1     Index curve
GR      .GAPI                                   :2     L06-07
DT      .US/F                                   :3     L06-07
RHOB    .G/C3                                   :4     L06-07
DRHO    .G/C3                                   :5     L06-07
NPHI    .V/V                                    :6     L06-07
~Ascii Log Data
# ...
    4406.5000    109.643204     82.010880   -999.250000   -999.250000   -999.250000
    4406.6000    108.349884     82.812576   -999.250000   -999.250000   -999.250000
    4406.7000    107.124496     83.571899   -999.250000   -999.250000   -999.250000
    4406.8000    107.948196     84.279922   -999.250000   -999.250000   -999.250000
    4406.9000    109.769928     84.961777   -999.250000   -999.250000   -999.250000
    4407.0000    111.476837     85.694397   -999.250000   -999.250000   -999.250000
    4407.1000    113.742249     86.544083   -999.250000   -999.250000   -999.250000
    4407.2000    116.641281     87.559555   -999.250000   -999.250000   -999.250000
    4407.3000    119.487854     88.661148   -999.250000   -999.250000   -999.250000
    4407.4000    121.987213     89.776794   -999.250000   -999.250000   -999.250000
    4407.5000    123.843735     90.762772   -999.250000   -999.250000   -999.250000
    4407.6000    125.361465     91.483841   -999.250000   -999.250000   -999.250000
    4407.7000    126.293060     91.856094   -999.250000   -999.250000   -999.250000
    4407.8000    124.941605     91.936356   -999.250000   -999.250000   -999.250000
    4407.9000    121.321777     91.727570   -999.250000   -999.250000   -999.250000
    4408.0000    117.574524     91.235199   -999.250000   -999.250000   -999.250000
    4408.1000    114.957596     90.628845   -999.250000   -999.250000   -999.250000
    4408.2000    113.568558     90.035965   -999.250000   -999.250000   -999.250000
    4408.3000    113.773376     89.536545   -999.250000   -999.250000   -999.250000
    4408.4000    115.405930     89.157166   -999.250000   -999.250000   -999.250000
    4408.5000    116.777054     88.848907   -999.250000   -999.250000   -999.250000
    4408.6000    116.523697     88.542755   -999.250000   -999.250000   -999.250000
    4408.7000    115.445023     88.188385   -999.250000   -999.250000   -999.250000
    4408.8000    114.629669     87.758301   -999.250000   -999.250000   -999.250000
    4408.9000    113.472153     87.266251   -999.250000   -999.250000   -999.250000
    4409.0000    111.004608     86.731171   -999.250000   -999.250000   -999.250000
    4409.1000    107.744980     86.138214   -999.250000   -999.250000   -999.250000
    4409.2000    104.820480     85.505814   -999.250000   -999.250000   -999.250000
    4409.3000    103.040054     84.919678   -999.250000   -999.250000   -999.250000
    4409.4000    103.019012     84.446213   -999.250000   -999.250000   -999.250000
    4409.5000    104.601395     84.092911   -999.250000   -999.250000   -999.250000
    4409.6000    106.948227     83.896667   -999.250000   -999.250000   -999.250000
    4409.7000    109.742462     83.901093   -999.250000   -999.250000   -999.250000
    4409.8000    112.809769     84.097839   -999.250000   -999.250000   -999.250000
    4409.9000    114.915741     84.421387   -999.250000   -999.250000   -999.250000
    4410.0000    114.558334     84.727158   -999.250000   -999.250000   -999.250000
    4410.1000    111.994431     84.801895   -999.250000   -999.250000   -999.250000
    4410.2000    109.146683     84.461349   -999.250000   -999.250000   -999.250000
    4410.3000    106.811172     83.671204   -999.250000   -999.250000   -999.250000
    4410.4000    103.638046     82.503845   -999.250000   -999.250000   -999.250000
    4410.5000     98.451050     81.017395   -999.250000   -999.250000   -999.250000
    4410.6000     91.821106     79.387451   -999.250000   -999.250000   -999.250000
    4410.7000     84.989868     77.831680   -999.250000   -999.250000   -999.250000
    4410.8000     79.160355     76.511826   -999.250000   -999.250000   -999.250000
    4410.9000     75.161362     75.504074   -999.250000   -999.250000   -999.250000
    4411.0000     72.926636     74.792130   -999.250000   -999.250000   -999.250000
    4411.1000     72.140274     74.310654   -999.250000   -999.250000   -999.250000
    4411.2000     72.408432     74.000946   -999.250000   -999.250000   -999.250000
    4411.3000     72.671463     73.920593   -999.250000   -999.250000   -999.250000
    4411.4000     72.247849     74.119171   -999.250000   -999.250000   -999.250000
    4411.5000     72.418976     74.626358   -999.250000   -999.250000   -999.250000
    4411.6000     75.624283     75.505295   -999.250000   -999.250000   -999.250000
    4411.7000     83.263885     76.741898   -999.250000   -999.250000   -999.250000
    4411.8000     94.360474     78.289719   -999.250000   -999.250000   -999.250000
    4411.9000    105.814896     80.063370   -999.250000   -999.250000   -999.250000
    4412.0000    115.492493     81.902664   -999.250000   -999.250000   -999.250000
    4412.1000    121.963013     83.573959   -999.250000   -999.250000   -999.250000
    4412.2000    123.747620     84.928619   -999.250000   -999.250000   -999.250000
    4412.3000    120.440460     85.951981   -999.250000   -999.250000      0.269823
    4412.4000    114.034851     86.565186   -999.250000   -999.250000      0.259905
    4412.5000    106.877808     86.636459   -999.250000   -999.250000      0.239665
    4412.6000    100.891479     86.242630   -999.250000   -999.250000      0.223885
    4412.7000     98.661957     85.517197   -999.250000   -999.250000      0.220686
    4412.8000    100.830521     84.565903   -999.250000   -999.250000      0.221789
    4412.9000    104.320160     83.454895   -999.250000   -999.250000      0.222219
    4413.0000    105.198044     82.220856   -999.250000   -999.250000      0.223280
    4413.1000    101.884888     80.947845   -999.250000   -999.250000      0.223570
    4413.2000     96.105865     79.719315   -999.250000   -999.250000      0.210670
    4413.3000     90.049118     78.596863   -999.250000   -999.250000      0.181559
    4413.4000     84.477814     77.607468   -999.250000   -999.250000      0.181231
    4413.5000     80.828110     76.778702   -999.250000   -999.250000      0.238822
    4413.6000     81.285141     76.216141   -999.250000   -999.250000      0.270874
    4413.7000     85.816605     76.025696   -999.250000   -999.250000      0.236230
    4413.8000     91.836792     76.256332   -999.250000   -999.250000      0.201777
    4413.9000     98.698898     77.205338   -999.250000   -999.250000      0.198902
    4414.0000    106.522049     78.593063      2.435209     -0.155169      0.211568
    4414.1000    113.186661     80.243332      2.440402     -0.152602      0.214742
    4414.2000    116.213272     82.300095      2.444845     -0.150298      0.203262
    4414.3000    117.405945     84.248901      2.445583     -0.149311      0.196039
    4414.4000    119.205154     85.905823      2.441244     -0.150229      0.193037
    4414.5000    120.174759     87.450638      2.434482     -0.152867      0.187416
    4414.6000    118.748062     88.709290      2.429718     -0.155239      0.201025
    4414.7000    117.495346     89.540314      2.429029     -0.156827      0.208660
    4414.8000    118.381927     89.756393      2.430542     -0.157462      0.202264
    4414.9000    117.787338     89.597321      2.433905     -0.156412      0.204505
    4415.0000    113.170135     88.971375      2.441773     -0.152931      0.203858
    4415.1000    107.330185     88.105515      2.456589     -0.145603      0.199290
    4415.2000    104.825134     87.143387      2.478763     -0.132496      0.196490
    4415.3000    104.409637     86.041656      2.503432     -0.115685      0.196685
    4415.4000    105.097076     85.232574      2.525174     -0.097755      0.201750
    4415.5000    108.104523     84.617554      2.545058     -0.082117      0.194395
    4415.6000    112.316437     84.300781      2.560663     -0.070702      0.192433
    4415.7000    115.609070     84.472733      2.570036     -0.063284      0.203795
    4415.8000    117.595917     84.992233      2.574562     -0.059736      0.222445
    4415.9000    119.447174     85.838120      2.577115     -0.056219      0.245644
    4416.0000    121.006516     86.765442      2.584412     -0.051059      0.252474
