# LAS format data
~Version Information
VERS.     2.00: CWLS LOG ASCII STANDARD - VERSION 2.0
WRAP.       NO: ONE LINE PER DEPTH STEP
~Well Information
#MNEM   .UNITS    DATA                           DESCRIPTION
#----   ------    ----                           -----------
STRT    .M        3928.0000                     :First Index Value
STOP    .M        64.9000                       :Last Index Value
STEP    .M        -0.1000                       :Frame Spacing
NULL    .         -999.2500                     :Absent Value
WELL    .         L07-01                        :Well Name
NAME	.         L07-01                        :Well Name   
FLD     .         UNKNOWN                       :Field Name  
CNTY    .                                       :County
STAT    .                                       :State
CTRY    .                                       :Country
LOC     .                                       :Location
API     .                                       :API Number
UWI     .         L07-01                        :UWI Number
DATE    .                                       :Date
COMP    .         PETROLAND                     :Company Name
SRVC    .                                       :Service Company
LATI    .DEG	53.722768                       :LATITUDE 
LONG    .DEG	4.796468                        :LONGITUDE 
~Parameter Information
#MNEM   .UNITS    VALUE                          DESCRIPTION
#----   ------    -----                          -----------
TDL     .M        3934.00000                    :Total Depth (Logger)
TDD     .M        3934.00000                    :Total Depth (Driller)   
UBID    .         7264                          :Unique Borehole Id  
PDAT    .         Mean Sea Level                :Permanent Datum 
EPD     .M           0.00000                    :Elevation of Permanent Datum (PDAT) above Mean Sea Level
LMF     .         Rotary Table                  :Logging Measured From (Name of Logging Elevation Reference) 
APD     .M          37.00000                    :Elevation of Depth Reference (LMF) Above Permanent Datum
EGL     .M         -36.00000                    :Elevation of Ground Level Above Mean Sea Level  
~Curve Information
#MNEM   .UNITS    API CODE                       CURVE DESCRIPTION
#----   ------    --------                       -----------------
DEPT    .M                                      :1     Index curve
GR      .GAPI                                   :2     L07-01
DT      .US/F                                   :3     L07-01
RHOB    .G/C3                                   :4     L07-01
NPHI    .V/V                                    :5     L07-01
~Ascii Log Data
# ...
    2272.0003     24.334557     75.569611   -999.250000   -999.250000
    2271.9003     25.403942     76.264877   -999.250000   -999.250000
    2271.8003     26.455456     76.819077   -999.250000   -999.250000
    2271.7003     27.638870     77.212418   -999.250000   -999.250000
    2271.6003     28.941971     77.384354   -999.250000   -999.250000
    2271.5003     29.775307     77.314392   -999.250000   -999.250000
    2271.4003     29.664055     77.018127   -999.250000   -999.250000
    2271.3003     28.819897     76.350616   -999.250000   -999.250000
    2271.2003     27.468079     75.106689   -999.250000   -999.250000
    2271.1003     25.740192     73.487717   -999.250000   -999.250000
    2271.0003     23.767956     71.851547   -999.250000   -999.250000
    2270.9003     22.192635     70.410492   -999.250000   -999.250000
    2270.8003     21.148239     69.273239   -999.250000   -999.250000
    2270.7003     20.111973     68.560333   -999.250000   -999.250000
    2270.6003     19.080605     68.361313   -999.250000   -999.250000
    2270.5003     18.126221     68.661591   -999.250000   -999.250000
    2270.4003     17.205791     69.351151   -999.250000   -999.250000
    2270.3003     16.968262     70.264328   -999.250000   -999.250000
    2270.2003     17.573593     71.260300   -999.250000   -999.250000
    2270.1003     18.494965     72.182190   -999.250000   -999.250000
    2270.0003     19.512745     72.871552   -999.250000   -999.250000
    2269.9003     20.512341     73.214111   -999.250000   -999.250000
    2269.8003     21.386646     73.235443   -999.250000   -999.250000
    2269.7003     21.833393     73.100204   -999.250000   -999.250000
    2269.6003     21.814987     72.985107   -999.250000   -999.250000
    2269.5003     21.584332     72.962662   -999.250000   -999.250000
    2269.4003     21.329861     73.016235   -999.250000   -999.250000
    2269.3003     21.165478     73.092850   -999.250000   -999.250000
    2269.2003     21.192837     73.111191   -999.250000   -999.250000
    2269.1003     21.393871     72.989243   -999.250000   -999.250000
    2269.0003     21.654770     72.706345   -999.250000   -999.250000
    2268.9003     21.899937     72.311157   -999.250000   -999.250000
    2268.8003     21.750404     71.853821   -999.250000   -999.250000
    2268.7003     21.138443     71.363968   -999.250000   -999.250000
    2268.6003     20.734871     70.858154   -999.250000   -999.250000
    2268.5003     20.791832     70.400726   -999.250000   -999.250000
    2268.4003     20.979485     70.131454   -999.250000   -999.250000
    2268.3003     20.891945     70.144653   -999.250000   -999.250000
    2268.2003     20.578121     70.443512   -999.250000   -999.250000
    2268.1003     20.407837     70.928665   -999.250000   -999.250000
    2268.0003     20.647354     71.430984   -999.250000   -999.250000
    2267.9003     21.136040     71.793442   -999.250000   -999.250000
    2267.8003     21.432800     71.991577   -999.250000   -999.250000
    2267.7003     21.318653     72.067154   -999.250000   -999.250000
    2267.6003     20.965275     72.035477   -999.250000   -999.250000
    2267.5003     20.820206     71.852890   -999.250000   -999.250000
    2267.4003     20.857964     71.501129   -999.250000   -999.250000
    2267.3003     20.940655     71.077042   -999.250000   -999.250000
    2267.2003     21.030750     70.672592   -999.250000   -999.250000
    2267.1003     21.220650     70.251755   -999.250000   -999.250000
    2267.0003     21.438793     69.785934   -999.250000   -999.250000
    2266.9003     21.293404     69.432724   -999.250000   -999.250000
    2266.8003     20.602646     69.369370   -999.250000   -999.250000
    2266.7003     19.437382     69.625641   -999.250000   -999.250000
    2266.6003     18.214165     70.084579   -999.250000   -999.250000
    2266.5003     17.432743     70.595673   -999.250000   -999.250000
    2266.4003     17.633522     71.158264   -999.250000   -999.250000
    2266.3003     18.214439     71.773483   -999.250000   -999.250000
    2266.2003     19.003159     72.316818   -999.250000   -999.250000
    2266.1003     19.763519     72.706390   -999.250000   -999.250000
    2266.0003     20.370853     72.903488   -999.250000   -999.250000
    2265.9003     20.650791     72.969681   -999.250000   -999.250000
    2265.8003     20.545952     72.905182   -999.250000   -999.250000
    2265.7003     20.623859     72.438354   -999.250000   -999.250000
    2265.6003     21.076786     71.446930   -999.250000   -999.250000
    2265.5003     21.472565     70.339157   -999.250000   -999.250000
    2265.4003     21.340538     69.340652   -999.250000   -999.250000
    2265.3003     20.415394     68.493652   -999.250000   -999.250000
    2265.2003     19.720432     67.862823   -999.250000   -999.250000
    2265.1003     19.183247     67.595001   -999.250000   -999.250000
    2265.0003     18.845058     67.887115   -999.250000   -999.250000
    2264.9003     18.774158     68.740311   -999.250000   -999.250000
    2264.8003     18.452938     69.920944   -999.250000   -999.250000
    2264.7003     17.402042     71.275116   -999.250000   -999.250000
    2264.6003     16.825195     72.422211   -999.250000   -999.250000
    2264.5003     16.847027     73.006882   -999.250000   -999.250000
    2264.4003     17.800011     72.671173   -999.250000   -999.250000
    2264.3003     18.755718     71.443237   -999.250000   -999.250000
    2264.2003     19.576393     70.030243   -999.250000   -999.250000
    2264.1003     19.818607     68.981598   -999.250000   -999.250000
    2264.0003     19.631706     68.696716   -999.250000   -999.250000
    2263.9003     19.105225     69.121002   -999.250000   -999.250000
    2263.8003     18.544518     69.961563   -999.250000   -999.250000
    2263.7003     18.146217     70.914612   -999.250000   -999.250000
    2263.6003     18.221478     71.659210   -999.250000   -999.250000
    2263.5003     19.291058     72.285095   -999.250000   -999.250000
    2263.4003     20.393330     72.889420   -999.250000   -999.250000
    2263.3003     21.506805     73.412186   -999.250000   -999.250000
    2263.2003     22.776012     73.767456   -999.250000   -999.250000
    2263.1003     23.907673     74.075012   -999.250000   -999.250000
    2263.0003     24.789803     74.358353   -999.250000   -999.250000
    2262.9003     25.381844     74.434525   -999.250000   -999.250000
    2262.8003     25.345383     74.071487   -999.250000   -999.250000
    2262.7003     24.504501     73.077698   -999.250000   -999.250000
    2262.6003     23.387150     71.356400   -999.250000   -999.250000
    2262.5003     22.177292     69.512360   -999.250000   -999.250000
    2262.4003     20.830929     67.929703   -999.250000   -999.250000
    2262.3003     19.318653     66.741867   -999.250000   -999.250000
    2262.2003     18.433342     66.173660   -999.250000   -999.250000
    2262.1003     18.558262     66.359619   -999.250000   -999.250000
    2262.0003     18.966045     67.112915   -999.250000   -999.250000
    2261.9003     19.661999     67.963760   -999.250000   -999.250000
    2261.8003     20.613010     68.699356   -999.250000   -999.250000
    2261.7003     21.485424     69.126373   -999.250000   -999.250000
    2261.6003     22.199825     69.127625   -999.250000   -999.250000
    2261.5003     22.224785     68.663818   -999.250000   -999.250000
    2261.4003     21.025902     67.815826   -999.250000   -999.250000
    2261.3003     19.549309     66.838165   -999.250000   -999.250000
    2261.2003     18.359291     66.118362   -999.250000   -999.250000
    2261.1003     16.828846     65.862473   -999.250000   -999.250000
    2261.0003     15.557173     65.932938   -999.250000   -999.250000
    2260.9003     15.072826     66.199997   -999.250000   -999.250000
    2260.8003     14.872353     66.630341   -999.250000   -999.250000
    2260.7003     14.785912     67.198761   -999.250000   -999.250000
    2260.6003     15.009476     67.842590   -999.250000   -999.250000
