# LAS format data
~Version Information
VERS.     2.00: CWLS LOG ASCII STANDARD - VERSION 2.0
WRAP.       NO: ONE LINE PER DEPTH STEP
~Well Information
#MNEM   .UNITS    DATA                           DESCRIPTION
#----   ------    ----                           -----------
STRT    .M        0.1000                        :First Index Value
STOP    .M        4856.1008                     :Last Index Value
STEP    .M        -0.1000                       :Frame Spacing
NULL    .         -999.2500                     :Absent Value
WELL    .         L06-07                        :Well Name   
NAME	.         L06-07                        :Well Name   
FLD     .         L Block                       :Field Name  
CNTY    .                                       :County
STAT    .                                       :State
CTRY    .                                       :Country
LOC     .                                       :Location
API     .                                       :API Number
UWI     .         L06-07                        :UWI Number
DATE    .                                       :Date
COMP    .                                       :Company
SRVC    .                                       :Service Company
LATI    .DEG	53.706549                         :LATITUDE 
LONG    .DEG	4.898703                          :LONGITUDE 
~Parameter Information
#MNEM   .UNITS    VALUE                          DESCRIPTION
#----   ------    -----                          -----------
TDL     .M        4865.00000                    :Total Depth (Logger)
TDD     .M        4865.00000                    :Total Depth (Driller)   
UBID    .         8971                          :Unique Borehole Id  
PDAT    .         Mean Sea Level                :Permanent Datum 
EPD     .M           0.00000                    :Elevation of Permanent Datum (PDAT) above Mean Sea Level
LMF     .         Rotary Table                  :Logging Measured From (Name of Logging Elevation Reference) 
APD     .M          42.00000                    :Elevation of Depth Reference (LMF) Above Permanent Datum
~Curve Information
#MNEM   .UNITS    API CODE                       CURVE DESCRIPTION
#----   ------    --------                       -----------------
DEPT    .M                                      :1     Index curve
GR      .GAPI                                   :2     L06-07
DT      .US/F                                   :3     L06-07
RHOB    .G/C3                                   :4     L06-07
DRHO    .G/C3                                   :5     L06-07
NPHI    .V/V                                    :6     L06-07
~Ascii Log Data
# ...
    4540.9004     79.492493     70.836243   -999.250000   -999.250000   -999.250000
    4541.0004     78.259308     71.433655   -999.250000   -999.250000   -999.250000
    4541.1004     69.727478     72.331375   -999.250000   -999.250000   -999.250000
    4541.2004     63.985199     73.539291   -999.250000   -999.250000   -999.250000
    4541.3004     76.220734     75.033783   -999.250000   -999.250000   -999.250000
    4541.4004     97.081207     76.536392   -999.250000   -999.250000   -999.250000
    4541.5004    112.404633     78.069839   -999.250000   -999.250000   -999.250000
    4541.6004    119.318710     79.482147   -999.250000   -999.250000   -999.250000
    4541.7004    123.311096     80.829803   -999.250000   -999.250000   -999.250000
    4541.8004    122.839996     81.951660   -999.250000   -999.250000   -999.250000
    4541.9004    120.798981     82.680191   -999.250000   -999.250000   -999.250000
    4542.0004    119.247681     83.174942   -999.250000   -999.250000   -999.250000
    4542.1004    118.685623     83.340042   -999.250000   -999.250000   -999.250000
    4542.2004    120.084488     83.222031   -999.250000   -999.250000   -999.250000
    4542.3004    120.712616     82.933624   -999.250000   -999.250000   -999.250000
    4542.4004    118.274277     82.421890   -999.250000   -999.250000   -999.250000
    4542.5004    113.759171     81.786285   -999.250000   -999.250000   -999.250000
    4542.6004    108.954468     81.064545   -999.250000   -999.250000   -999.250000
    4542.7004    105.261963     80.336929   -999.250000   -999.250000   -999.250000
    4542.8004    102.162231     79.732712   -999.250000   -999.250000   -999.250000
    4542.9004     99.593811     79.306549   -999.250000   -999.250000   -999.250000
    4543.0004    100.356506     79.267883   -999.250000   -999.250000   -999.250000
    4543.1004    106.998413     79.468521   -999.250000   -999.250000   -999.250000
    4543.2004    117.708282     79.907562   -999.250000   -999.250000   -999.250000
    4543.3004    125.688004     80.468674   -999.250000   -999.250000      0.227683
    4543.4004    128.465759     80.983185   -999.250000   -999.250000      0.239037
    4543.5004    127.209564     81.366653   -999.250000   -999.250000      0.238989
    4543.6004    121.971863     81.571152   -999.250000   -999.250000      0.234408
    4543.7004    113.786346     81.689774   -999.250000   -999.250000      0.230316
    4543.8004    107.438644     81.755692   -999.250000   -999.250000      0.225185
    4543.9004    107.741440     81.800827   -999.250000   -999.250000      0.223693
    4544.0004    114.465515     81.841827   -999.250000   -999.250000      0.229574
    4544.1004    121.460052     81.914352   -999.250000   -999.250000      0.239640
    4544.2004    125.884460     82.083374   -999.250000   -999.250000      0.242651
    4544.3004    127.429764     82.352341   -999.250000   -999.250000      0.235125
    4544.4004    126.409653     82.722977   -999.250000   -999.250000      0.227323
    4544.5004    122.939728     83.133728   -999.250000   -999.250000      0.226680
    4544.6004    118.780350     83.481461   -999.250000   -999.250000      0.230907
    4544.7004    115.630066     83.663284   -999.250000   -999.250000      0.232488
    4544.8004    113.790771     83.658676   -999.250000   -999.250000      0.229759
    4544.9004    113.335526     83.450943      2.666941     -0.003140      0.231217
    4545.0004    113.706024     83.024017      2.671183      0.002396      0.232581
    4545.1004    114.411270     82.439667      2.670192      0.004169      0.226957
    4545.2004    115.204193     81.734787      2.669040      0.002593      0.217771
    4545.3004    114.646164     80.954208      2.672514      0.000327      0.206872
    4545.4004    111.245377     80.182693      2.678887     -0.000736      0.194614
    4545.5004    106.439163     79.442154      2.684296     -0.000119      0.184917
    4545.6004    103.498260     78.751907      2.686635      0.001456      0.180592
    4545.7004    103.003464     78.099625      2.682838      0.002294      0.181757
    4545.8004    102.815125     77.453461      2.672030      0.001665      0.188590
    4545.9004    102.010345     76.782425      2.660828      0.000891      0.195183
    4546.0004    100.901001     76.023056      2.655696      0.001387      0.196031
    4546.1004     98.611420     75.104538      2.656745      0.002869      0.193742
    4546.2004     93.618149     74.003586      2.662331      0.003954      0.193356
    4546.3004     86.302200     72.735504      2.669192      0.003439      0.195540
    4546.4004     78.751923     71.368790      2.672171      0.001224      0.193520
    4546.5004     72.278992     69.988541      2.670238     -0.001271      0.182315
    4546.6004     67.498047     68.722626      2.669247     -0.001658      0.162751
    4546.7004     65.080063     67.735977      2.675772      0.001785      0.138235
    4546.8004     65.310211     67.229065      2.689925      0.008652      0.118354
    4546.9004     68.480743     67.434570      2.704429      0.016425      0.117219
    4547.0004     75.716751     68.418625      2.712555      0.022440      0.152401
    4547.1004     87.335693     70.056946      2.714281      0.025652      0.218622
    4547.2004    101.021942     72.204330      2.714236      0.027060      0.248147
    4547.3004    113.595047     74.538422      2.716508      0.028332      0.199998
    4547.4004    123.522369     76.623795      2.722590      0.030342      0.144554
    4547.5004    129.716095     78.191864      2.730134      0.032378      0.135185
    4547.6004    130.713623     79.173172      2.733181      0.032717      0.142047
    4547.7004    126.565918     79.598526      2.729145      0.030547      0.138908
    4547.8004    118.483093     79.447769      2.722453      0.026890      0.132363
    4547.9004    107.816666     78.736084      2.717425      0.023228      0.127876
    4548.0004     96.979843     77.470978      2.713097      0.019925      0.125219
    4548.1004     89.584625     75.750778      2.706640      0.016573      0.124837
    4548.2004     86.298538     73.779800      2.697204      0.012665      0.126482
    4548.3004     84.193314     71.845047      2.687493      0.008414      0.128827
    4548.4004     81.326263     70.226059      2.681503      0.004745      0.130415
    4548.5004     79.410233     69.072479      2.680437      0.002458      0.132487
    4548.6004     80.669815     68.520523      2.682470      0.001816      0.136294
    4548.7004     84.111893     68.487717      2.685652      0.002117      0.137702
    4548.8004     87.388474     68.818024      2.686780      0.001956      0.134597
    4548.9004     89.644608     69.465790      2.679207      0.000006      0.130982
    4549.0004     91.369720     70.393890      2.661844     -0.003635      0.132360
    4549.1004     93.127411     71.554459      2.646136     -0.007102      0.146482
    4549.2004     96.727310     72.949188      2.640924     -0.008812      0.174030
    4549.3004    103.885345     74.532837      2.643042     -0.008936      0.207148
    4549.4004    112.727341     76.162918      2.645543     -0.008656      0.233062
    4549.5004    118.696976     77.720139      2.645694     -0.008406      0.241000
    4549.6004    119.228989     79.209061      2.646242     -0.007431      0.235401
    4549.7004    116.909119     80.600845      2.649587     -0.005311      0.231842
    4549.8004    115.661896     81.800125      2.653126     -0.002772      0.235683
    4549.9004    116.590988     82.796326      2.654017     -0.001007      0.245043
    4550.0004    119.125473     83.565155      2.653117     -0.000338      0.240984
    4550.1004    122.793091     84.090561      2.651725     -0.000695      0.228750
    4550.2004    126.039139     84.414444      2.648317     -0.002306      0.227553
    4550.3004    127.626480     84.553192      2.645654     -0.004338      0.238912
    4550.4004    127.782837     84.511047      2.651263     -0.005254      0.264288
