# LAS format data
~Version Information
VERS.     2.00: CWLS LOG ASCII STANDARD - VERSION 2.0
WRAP.       NO: ONE LINE PER DEPTH STEP
~Well Information
#MNEM   .UNITS    DATA                           DESCRIPTION
#----   ------    ----                           -----------
STRT    .M        3928.0000                     :First Index Value
STOP    .M        64.9000                       :Last Index Value
STEP    .M        -0.1000                       :Frame Spacing
NULL    .         -999.2500                     :Absent Value
WELL    .         L07-01                        :Well Name
NAME	.         L07-01                        :Well Name   
FLD     .         UNKNOWN                       :Field Name  
CNTY    .                                       :County
STAT    .                                       :State
CTRY    .                                       :Country
LOC     .                                       :Location
API     .                                       :API Number
UWI     .         L07-01                        :UWI Number
DATE    .                                       :Date
COMP    .         PETROLAND                     :Company Name
SRVC    .                                       :Service Company
LATI    .DEG	53.722768                       :LATITUDE 
LONG    .DEG	4.796468                        :LONGITUDE 
~Parameter Information
#MNEM   .UNITS    VALUE                          DESCRIPTION
#----   ------    -----                          -----------
TDL     .M        3934.00000                    :Total Depth (Logger)
TDD     .M        3934.00000                    :Total Depth (Driller)   
UBID    .         7264                          :Unique Borehole Id  
PDAT    .         Mean Sea Level                :Permanent Datum 
EPD     .M           0.00000                    :Elevation of Permanent Datum (PDAT) above Mean Sea Level
LMF     .         Rotary Table                  :Logging Measured From (Name of Logging Elevation Reference) 
APD     .M          37.00000                    :Elevation of Depth Reference (LMF) Above Permanent Datum
EGL     .M         -36.00000                    :Elevation of Ground Level Above Mean Sea Level  
~Curve Information
#MNEM   .UNITS    API CODE                       CURVE DESCRIPTION
#----   ------    --------                       -----------------
DEPT    .M                                      :1     Index curve
GR      .GAPI                                   :2     L07-01
DT      .US/F                                   :3     L07-01
RHOB    .G/C3                                   :4     L07-01
NPHI    .V/V                                    :5     L07-01
~Ascii Log Data
# ...
    1317.5001     57.490776    155.964600   -999.250000   -999.250000
    1317.4001     57.471207    155.805267   -999.250000   -999.250000
    1317.3001     57.821533    156.045380   -999.250000   -999.250000
    1317.2001     58.538933    156.606049   -999.250000   -999.250000
    1317.1001     59.443672    157.194427   -999.250000   -999.250000
    1317.0001     60.364082    157.518738   -999.250000   -999.250000
    1316.9001     61.127960    157.304749   -999.250000   -999.250000
    1316.8001     61.333519    156.369446   -999.250000   -999.250000
    1316.7001     60.944344    154.901031   -999.250000   -999.250000
    1316.6001     59.889381    153.574127   -999.250000   -999.250000
    1316.5001     58.760300    152.760712   -999.250000   -999.250000
    1316.4001     57.588387    152.415833   -999.250000   -999.250000
    1316.3001     56.390327    152.192200   -999.250000   -999.250000
    1316.2001     55.381500    151.111755   -999.250000   -999.250000
    1316.1001     54.522118    148.576172   -999.250000   -999.250000
    1316.0001     53.886932    145.255859   -999.250000   -999.250000
    1315.9001     53.616600    142.374817   -999.250000   -999.250000
    1315.8001     53.535751    140.398651   -999.250000   -999.250000
    1315.7001     53.539520    139.630005   -999.250000   -999.250000
    1315.6001     53.394768    140.198395   -999.250000   -999.250000
    1315.5001     53.098824    142.118805   -999.250000   -999.250000
    1315.4001     52.681389    144.187286   -999.250000   -999.250000
    1315.3001     52.511444    145.429352   -999.250000   -999.250000
    1315.2001     52.568245    145.846649   -999.250000   -999.250000
    1315.1001     52.839821    145.929077   -999.250000   -999.250000
    1315.0001     52.950516    146.052155   -999.250000   -999.250000
    1314.9001     52.745110    146.406311   -999.250000   -999.250000
    1314.8001     52.015022    146.901550   -999.250000   -999.250000
    1314.7001     51.474098    147.293152   -999.250000   -999.250000
    1314.6001     51.329208    147.651001   -999.250000   -999.250000
    1314.5001     51.914619    147.763611   -999.250000   -999.250000
    1314.4001     52.648666    147.298187   -999.250000   -999.250000
    1314.3001     53.452240    146.268616   -999.250000   -999.250000
    1314.2001     54.100159    144.912476   -999.250000   -999.250000
    1314.1001     54.476990    143.996246   -999.250000   -999.250000
    1314.0001     54.195099    144.239838   -999.250000   -999.250000
    1313.9001     53.044418    145.257568   -999.250000   -999.250000
    1313.8001     52.147415    145.907562   -999.250000   -999.250000
    1313.7001     51.350288    144.794586   -999.250000   -999.250000
    1313.6001     50.081589    141.133026   -999.250000   -999.250000
    1313.5001     48.993698    135.795654   -999.250000   -999.250000
    1313.4001     48.344910    130.923553   -999.250000   -999.250000
    1313.3001     48.055328    128.214813   -999.250000   -999.250000
    1313.2001     48.040039    128.318878   -999.250000   -999.250000
    1313.1001     48.012970    131.137939   -999.250000   -999.250000
    1313.0001     47.439789    135.749390   -999.250000   -999.250000
    1312.9001     45.939789    140.557922   -999.250000   -999.250000
    1312.8001     43.198982    144.176056   -999.250000   -999.250000
    1312.7001     39.855759    146.114960   -999.250000   -999.250000
    1312.6001     37.347519    146.966675   -999.250000   -999.250000
    1312.5001     36.615860    147.462982   -999.250000   -999.250000
    1312.4001     37.258034    147.852081   -999.250000   -999.250000
    1312.3001     38.823105    148.054993   -999.250000   -999.250000
    1312.2001     41.066887    147.916748   -999.250000   -999.250000
    1312.1001     43.708412    147.422546   -999.250000   -999.250000
    1312.0001     45.942863    146.830292   -999.250000   -999.250000
    1311.9001     47.491898    146.575897   -999.250000   -999.250000
    1311.8001     48.895721    146.966522   -999.250000   -999.250000
    1311.7001     49.813057    147.983276   -999.250000   -999.250000
    1311.6001     50.043915    149.340485   -999.250000   -999.250000
    1311.5001     49.958817    150.835388   -999.250000   -999.250000
    1311.4001     49.850601    152.446350   -999.250000   -999.250000
    1311.3001     49.729706    153.896088   -999.250000   -999.250000
    1311.2001     49.417763    153.852386   -999.250000   -999.250000
    1311.1001     48.484467    150.843353   -999.250000   -999.250000
    1311.0001     47.229897    144.880371   -999.250000   -999.250000
    1310.9001     46.509827    137.972290   -999.250000   -999.250000
    1310.8001     46.768799    133.020142   -999.250000   -999.250000
    1310.7001     47.787666    131.325562   -999.250000   -999.250000
    1310.6001     49.208878    133.204285   -999.250000   -999.250000
    1310.5001     50.724991    138.359131   -999.250000   -999.250000
    1310.4001     51.891464    145.030304   -999.250000   -999.250000
    1310.3001     52.078163    150.382416   -999.250000   -999.250000
    1310.2001     51.437782    152.958923   -999.250000   -999.250000
    1310.1001     50.514900    153.484283   -999.250000   -999.250000
    1310.0001     49.428139    153.238281   -999.250000   -999.250000
    1309.9001     48.129463    152.928345   -999.250000   -999.250000
    1309.8001     46.907745    152.819977   -999.250000   -999.250000
    1309.7001     46.662048    152.923767   -999.250000   -999.250000
    1309.6001     47.973587    153.156799   -999.250000   -999.250000
    1309.5001     50.384056    153.517120   -999.250000   -999.250000
    1309.4001     52.776039    153.910553   -999.250000   -999.250000
    1309.3001     54.813988    154.181030   -999.250000   -999.250000
    1309.2001     56.822678    154.448700   -999.250000   -999.250000
    1309.1001     58.710457    155.032623   -999.250000   -999.250000
    1309.0001     59.861824    156.109375   -999.250000   -999.250000
    1308.9001     59.866913    157.580780   -999.250000   -999.250000
    1308.8001     58.896202    159.162781   -999.250000   -999.250000
    1308.7001     57.700142    160.440674   -999.250000   -999.250000
    1308.6001     57.155563    161.023926   -999.250000   -999.250000
    1308.5001     57.506081    160.702057   -999.250000   -999.250000
    1308.4001     58.545753    159.529083   -999.250000   -999.250000
    1308.3001     59.694626    157.831543   -999.250000   -999.250000
    1308.2001     60.848740    156.033722   -999.250000   -999.250000
    1308.1001     61.965782    154.569000   -999.250000   -999.250000
    1308.0001     63.063164    153.743927   -999.250000   -999.250000
    1307.9001     64.123291    153.597076   -999.250000   -999.250000
    1307.8001     64.912552    153.938354   -999.250000   -999.250000
    1307.7001     65.132278    154.561249   -999.250000   -999.250000
    1307.6001     64.751328    155.229126   -999.250000   -999.250000
    1307.5001     63.972992    155.706848   -999.250000   -999.250000
    1307.4001     62.754753    155.831573   -999.250000   -999.250000
    1307.3001     61.717705    155.567535   -999.250000   -999.250000
    1307.2001     62.017700    154.986572   -999.250000   -999.250000
    1307.1001     63.102417    154.252106   -999.250000   -999.250000
    1307.0001     64.834305    153.609344   -999.250000   -999.250000
    1306.9001     66.713684    153.218536   -999.250000   -999.250000
    1306.8001     68.382019    153.135284   -999.250000   -999.250000
    1306.7001     69.233231    153.248932   -999.250000   -999.250000
    1306.6001     68.580673    153.461395   -999.250000   -999.250000
    1306.5001     67.455887    153.706299   -999.250000   -999.250000
    1306.4001     66.201553    153.958649   -999.250000   -999.250000
    1306.3001     64.791428    154.211914   -999.250000   -999.250000
    1306.2001     64.178467    154.438385   -999.250000   -999.250000
    1306.1001     65.373245    154.532990   -999.250000   -999.250000
