# LAS format data
~Version Information
VERS.     2.00: CWLS LOG ASCII STANDARD - VERSION 2.0
WRAP.       NO: ONE LINE PER DEPTH STEP
~Well Information
#MNEM   .UNITS    DATA                           DESCRIPTION
#----   ------    ----                           -----------
STRT    .M        0.1000                        :First Index Value
STOP    .M        4856.1008                     :Last Index Value
STEP    .M        -0.1000                       :Frame Spacing
NULL    .         -999.2500                     :Absent Value
WELL    .         L06-07                        :Well Name   
NAME	.         L06-07                        :Well Name   
FLD     .         L Block                       :Field Name  
CNTY    .                                       :County
STAT    .                                       :State
CTRY    .                                       :Country
LOC     .                                       :Location
API     .                                       :API Number
UWI     .         L06-07                        :UWI Number
DATE    .                                       :Date
COMP    .                                       :Company
SRVC    .                                       :Service Company
LATI    .DEG	53.706549                         :LATITUDE 
LONG    .DEG	4.898703                          :LONGITUDE 
~Parameter Information
#MNEM   .UNITS    VALUE                          DESCRIPTION
#----   ------    -----                          -----------
TDL     .M        4865.00000                    :Total Depth (Logger)
TDD     .M        4865.00000                    :Total Depth (Driller)   
UBID    .         8971                          :Unique Borehole Id  
PDAT    .         Mean Sea Level                :Permanent Datum 
EPD     .M           0.00000                    :Elevation of Permanent Datum (PDAT) above Mean Sea Level
LMF     .         Rotary Table                  :Logging Measured From (Name of Logging Elevation Reference) 
APD     .M          42.00000                    :Elevation of Depth Reference (LMF) Above Permanent Datum
~Curve Information
#MNEM   .UNITS    API CODE                       CURVE DESCRIPTION
#----   ------    --------                       -----------------
DEPT    .M                                      :1     Index curve
GR      .GAPI                                   :2     L06-07
DT      .US/F                                   :3     L06-07
RHOB    .G/C3                                   :4     L06-07
DRHO    .G/C3                                   :5     L06-07
NPHI    .V/V                                    :6     L06-07
~Ascii Log Data
# ...
    4512.1006     74.256958     73.847855   -999.250000   -999.250000   -999.250000
    4512.2006     65.085403     72.502914   -999.250000   -999.250000   -999.250000
    4512.3006     63.614067     71.246719   -999.250000   -999.250000   -999.250000
    4512.4006     68.750839     70.304626   -999.250000   -999.250000   -999.250000
    4512.5006     74.259109     69.588120   -999.250000   -999.250000   -999.250000
    4512.6006     76.503922     69.170990   -999.250000   -999.250000   -999.250000
    4512.7006     77.926208     69.198975   -999.250000   -999.250000   -999.250000
    4512.8006     81.170975     69.489151   -999.250000   -999.250000   -999.250000
    4512.9006     86.259033     70.062393   -999.250000   -999.250000   -999.250000
    4513.0006     91.768417     71.027863   -999.250000   -999.250000   -999.250000
    4513.1006     97.133209     72.293503   -999.250000   -999.250000   -999.250000
    4513.2006    102.917450     73.866669   -999.250000   -999.250000   -999.250000
    4513.3006    108.637054     75.675476   -999.250000   -999.250000   -999.250000
    4513.4006    112.945999     77.453568   -999.250000   -999.250000   -999.250000
    4513.5006    115.282684     79.104263   -999.250000   -999.250000   -999.250000
    4513.6006    115.954971     80.563461   -999.250000   -999.250000   -999.250000
    4513.7006    115.606735     81.661438   -999.250000   -999.250000   -999.250000
    4513.8006    115.021698     82.371765   -999.250000   -999.250000   -999.250000
    4513.9006    114.292999     82.816193   -999.250000   -999.250000   -999.250000
    4514.0006    112.987427     82.979675   -999.250000   -999.250000   -999.250000
    4514.1006    111.574234     82.845352   -999.250000   -999.250000   -999.250000
    4514.2006    110.687439     82.510361   -999.250000   -999.250000   -999.250000
    4514.3006    109.771133     82.055542   -999.250000   -999.250000      0.221072
    4514.4006    108.415588     81.550339   -999.250000   -999.250000      0.222153
    4514.5006    107.188766     81.062714   -999.250000   -999.250000      0.219920
    4514.6006    105.981552     80.651321   -999.250000   -999.250000      0.208076
    4514.7006    103.740875     80.333282   -999.250000   -999.250000      0.201950
    4514.8006    100.523117     80.131760   -999.250000   -999.250000      0.215001
    4514.9006     98.409515     80.112549   -999.250000   -999.250000      0.230409
    4515.0006     99.815826     80.294083   -999.250000   -999.250000      0.234145
    4515.1006    104.933502     80.621445   -999.250000   -999.250000      0.232818
    4515.2006    110.724838     81.043854   -999.250000   -999.250000      0.234734
    4515.3006    113.611557     81.482635   -999.250000   -999.250000      0.238579
    4515.4006    112.568542     81.838516   -999.250000   -999.250000      0.239521
    4515.5006    109.465912     82.092651   -999.250000   -999.250000      0.236314
    4515.6006    107.932495     82.268188   -999.250000   -999.250000      0.232688
    4515.7006    110.898438     82.377853   -999.250000   -999.250000      0.231347
    4515.8006    117.111740     82.394302   -999.250000   -999.250000      0.229444
    4515.9006    120.668869     82.233795      2.636019   -999.250000      0.224028
    4516.0006    116.557129     81.754700      2.643487     -0.006475      0.216846
    4516.1006    105.963150     80.857666      2.651083     -0.004950      0.211577
    4516.2006     94.722290     79.605255      2.649936     -0.004309      0.209090
    4516.3006     86.985489     78.126434      2.640935     -0.004999      0.206218
    4516.4006     82.431656     76.552780      2.632481     -0.006119      0.199662
    4516.5006     78.497330     74.951614      2.628678     -0.007050      0.188818
    4516.6006     74.054642     73.398605      2.626524     -0.008125      0.172445
    4516.7006     70.764740     72.037750      2.622017     -0.009542      0.151866
    4516.8006     71.505096     71.064987      2.617122     -0.010321      0.135161
    4516.9006     77.732620     70.729904      2.618340     -0.008862      0.128412
    4517.0006     88.052307     71.126175      2.627528     -0.004960      0.133335
    4517.1006     99.596054     72.189087      2.637628     -0.000701      0.156305
    4517.2006    109.845367     73.815140      2.640048      0.001102      0.198037
    4517.3006    117.017532     75.725647      2.634912     -0.000375      0.235620
    4517.4006    121.005661     77.707031      2.629205     -0.003581      0.247194
    4517.5006    123.474548     79.651276      2.628963     -0.006134      0.243448
    4517.6006    125.084656     81.334427      2.635509     -0.006195      0.246739
    4517.7006    123.917023     82.577240      2.645832     -0.003848      0.260092
    4517.8006    118.537476     83.354263      2.653383     -0.000603      0.272239
    4517.9006    111.572693     83.744049      2.654751      0.002094      0.272303
    4518.0006    107.627014     83.803284      2.652019      0.003787      0.258829
    4518.1006    109.216232     83.711685      2.648642      0.004574      0.243425
    4518.2006    115.025650     83.638535      2.646801      0.004451      0.235238
    4518.3006    121.985931     83.671249      2.646657      0.003263      0.232926
    4518.4006    128.346069     83.796112      2.646304      0.001312      0.228698
    4518.5006    131.371338     83.984863      2.646026     -0.000276      0.227104
    4518.6006    128.105255     84.221939      2.648658     -0.000152      0.230550
    4518.7006    121.030426     84.466507      2.654119      0.001138      0.229479
    4518.8006    115.276093     84.688629      2.655291      0.001487      0.221214
    4518.9006    112.719910     84.850113      2.647704     -0.001023      0.216858
    4519.0006    112.389481     84.992050      2.634252     -0.005317      0.232194
    4519.1006    114.853546     85.120209      2.621517     -0.009273      0.247948
    4519.2006    119.553040     85.174576      2.613936     -0.011075      0.240544
    4519.3006    124.214539     85.160767      2.614427     -0.010780      0.237070
    4519.4006    126.845581     85.099518      2.623021     -0.008837      0.239408
    4519.5006    125.981323     85.089920      2.633456     -0.006284      0.233203
    4519.6006    122.883347     85.198395      2.640666     -0.004325      0.233991
    4519.7006    119.976196     85.441406      2.642978     -0.003308      0.242269
    4519.8006    118.067642     85.579773      2.642373     -0.003014      0.240182
    4519.9006    116.524017     85.543900      2.641771     -0.002769      0.235864
    4520.0006    115.087723     85.227936      2.642166     -0.002174      0.234845
    4520.1006    112.701080     84.437271      2.643218     -0.001034      0.215822
    4520.2006    109.061356     83.449203      2.644143      0.000392      0.222750
    4520.3006    107.095520     82.465469      2.645308      0.001533      0.228424
    4520.4006    106.472961     81.511108      2.653206      0.001714      0.236699
    4520.5006    102.553253     80.555435      2.663873     -0.000635      0.231650
    4520.6006     95.677689     79.591812      2.662385     -0.006461      0.217483
    4520.7006     89.115829     78.564926      2.648075     -0.013831      0.195002
    4520.8006     84.229538     77.513489      2.639256     -0.016964      0.167116
    4520.9006     81.159744     76.404907      2.639715     -0.015996      0.165095
    4521.0006     82.983414     75.443649      2.642090     -0.013816      0.179128
    4521.1006     91.364243     74.606674      2.646440     -0.011759      0.158393
    4521.2006     98.148224     74.140289      2.654298     -0.009188      0.156731
    4521.3006     97.728409     73.777451      2.658593     -0.007352      0.169361
    4521.4006     92.640884     73.539032      2.652720     -0.008025      0.171038
    4521.5006     87.512131     73.447525      2.642928     -0.009232      0.156134
    4521.6006     83.296860     73.197372      2.644439     -0.008246      0.145716
