# LAS format data
~Version Information
VERS.     2.00: CWLS LOG ASCII STANDARD - VERSION 2.0
WRAP.       NO: ONE LINE PER DEPTH STEP
~Well Information
#MNEM   .UNITS    DATA                           DESCRIPTION
#----   ------    ----                           -----------
STRT    .M        0.1000                        :First Index Value
STOP    .M        4856.1008                     :Last Index Value
STEP    .M        -0.1000                       :Frame Spacing
NULL    .         -999.2500                     :Absent Value
WELL    .         L06-07                        :Well Name   
NAME	.         L06-07                        :Well Name   
FLD     .         L Block                       :Field Name  
CNTY    .                                       :County
STAT    .                                       :State
CTRY    .                                       :Country
LOC     .                                       :Location
API     .                                       :API Number
UWI     .         L06-07                        :UWI Number
DATE    .                                       :Date
COMP    .                                       :Company
SRVC    .                                       :Service Company
LATI    .DEG	53.706549                         :LATITUDE 
LONG    .DEG	4.898703                          :LONGITUDE 
~Parameter Information
#MNEM   .UNITS    VALUE                          DESCRIPTION
#----   ------    -----                          -----------
TDL     .M        4865.00000                    :Total Depth (Logger)
TDD     .M        4865.00000                    :Total Depth (Driller)   
UBID    .         8971                          :Unique Borehole Id  
PDAT    .         Mean Sea Level                :Permanent Datum 
EPD     .M           0.00000                    :Elevation of Permanent Datum (PDAT) above Mean Sea Level
LMF     .         Rotary Table                  :Logging Measured From (Name of Logging Elevation Reference) 
APD     .M          42.00000                    :Elevation of Depth Reference (LMF) Above Permanent Datum
~Curve Information
#MNEM   .UNITS    API CODE                       CURVE DESCRIPTION
#----   ------    --------                       -----------------
DEPT    .M                                      :1     Index curve
GR      .GAPI                                   :2     L06-07
DT      .US/F                                   :3     L06-07
RHOB    .G/C3                                   :4     L06-07
DRHO    .G/C3                                   :5     L06-07
NPHI    .V/V                                    :6     L06-07
~Ascii Log Data
# ...
    4704.1006     36.191658     73.849960      2.449042     -0.040264      0.151920
    4704.2006     34.470543     74.434372      2.436111     -0.033636      0.151308
    4704.3006     31.669998     74.930206      2.426951     -0.028197      0.148938
    4704.4006     28.771320     75.279831      2.429083     -0.025142      0.147873
    4704.5006     26.508717     75.464584      2.446210     -0.024597      0.147256
    4704.6006     25.111164     75.486786      2.469995     -0.026570      0.146635
    4704.7006     24.815659     75.383713      2.487204     -0.030931      0.146244
    4704.8006     26.105034     75.200226      2.490208     -0.036767      0.144952
    4704.9006     28.722919     74.980377      2.483372     -0.042276      0.142330
    4705.0006     31.768261     74.753860      2.477986     -0.045864      0.140227
    4705.1006     34.780861     74.536331      2.482273     -0.046604      0.140064
    4705.2006     37.885025     74.329483      2.493872     -0.044936      0.139988
    4705.3006     40.542618     74.149719      2.504020     -0.042659      0.139959
    4705.4006     41.567558     74.038391      2.506342     -0.041841      0.142758
    4705.5006     40.240021     74.027405      2.496906     -0.043388      0.147693
    4705.6006     36.550499     74.133530      2.473143     -0.046510      0.152327
    4705.7006     31.272934     74.362961      2.437957     -0.049478      0.155766
    4705.8006     26.185596     74.695709      2.400207     -0.051039      0.156793
    4705.9006     23.039131     75.092682      2.368857     -0.051172      0.155682
    4706.0006     21.823154     75.534103      2.346265     -0.050983      0.155279
    4706.1006     21.377655     75.993286      2.330691     -0.051554      0.157037
    4706.2006     21.083221     76.452118      2.320398     -0.052797      0.159588
    4706.3006     21.324932     76.906158      2.315879     -0.053826      0.161425
    4706.4006     22.201000     77.329956      2.316593     -0.054057      0.162404
    4706.5006     22.847176     77.701889      2.319210     -0.053539      0.164675
    4706.6006     22.567280     78.008514      2.321347     -0.052260      0.168957
    4706.7006     21.682747     78.221619      2.323135     -0.049706      0.171153
    4706.8006     20.880890     78.294907      2.325373     -0.045295      0.169376
    4706.9006     20.515915     78.243164      2.328319     -0.039357      0.166603
    4707.0006     20.567566     78.111465      2.332497     -0.032787      0.164265
    4707.1006     20.759003     77.907318      2.339971     -0.026976      0.162402
    4707.2006     20.770824     77.641769      2.351793     -0.023655      0.161893
    4707.3006     20.565678     77.326370      2.364188     -0.024209      0.163311
    4707.4006     20.278191     76.963196      2.370868     -0.029618      0.167210
    4707.5006     20.036144     76.600601      2.370047     -0.038606      0.171154
    4707.6006     20.152378     76.307068      2.366182     -0.047905      0.170301
    4707.7006     20.939148     76.137558      2.365460     -0.054249      0.164185
    4707.8006     21.958523     76.082260      2.369657     -0.056019      0.158987
    4707.9006     22.417698     76.111404      2.375073     -0.054804      0.157498
    4708.0006     21.994381     76.178131      2.375303     -0.053636      0.159762
    4708.1006     21.011562     76.240906      2.367736     -0.054741      0.164214
    4708.2006     19.954700     76.269730      2.355801     -0.057173      0.164867
    4708.3006     19.409031     76.234909      2.346535     -0.058386      0.164642
    4708.4006     19.941593     76.169510      2.343177     -0.056055      0.162825
    4708.5006     21.151630     76.121155      2.343596     -0.051237      0.156201
    4708.6006     21.852875     76.102188      2.344133     -0.045801      0.153803
    4708.7006     21.805717     76.097855      2.343867     -0.040217      0.157944
    4708.8006     22.412689     76.083405      2.346423     -0.034544      0.162658
    4708.9006     24.098251     76.033463      2.356276     -0.028713      0.164669
    4709.0006     25.308578     75.961380      2.370893     -0.023101      0.163478
    4709.1006     24.803585     75.926102      2.383353     -0.020497      0.157288
    4709.2006     23.922169     75.898499      2.390032     -0.021782      0.157199
    4709.3006     24.312359     75.858337      2.392728     -0.027044      0.161538
    4709.4006     25.023609     75.778275      2.394681     -0.034637      0.159047
    4709.5006     24.327789     75.651169      2.398310     -0.042090      0.155086
    4709.6006     22.490627     75.478912      2.403930     -0.047595      0.153173
    4709.7006     20.868481     75.282333      2.408684     -0.050514      0.149276
    4709.8006     20.302280     75.069138      2.408001     -0.052031      0.145974
    4709.9006     20.769382     74.843689      2.399417     -0.052479      0.146419
    4710.0006     21.830677     74.589340      2.391316     -0.050626      0.146958
    4710.1006     22.237461     74.286880      2.391840     -0.045132      0.141727
    4710.2006     21.477173     73.918747      2.399471     -0.037690      0.135171
    4710.3006     20.126644     73.610794      2.404791     -0.031075      0.133102
    4710.4006     19.541702     73.362518      2.403856     -0.028100      0.137188
    4710.5006     19.838169     73.230026      2.399621     -0.026609      0.143486
    4710.6006     19.765083     73.140594      2.397978     -0.026030      0.149844
    4710.7006     19.057487     73.071548      2.404768     -0.025847      0.145346
    4710.8006     18.883678     73.020432      2.417307     -0.026748      0.144190
    4710.9006     19.592819     72.995514      2.422502     -0.030785      0.145404
    4711.0006     20.753849     72.980789      2.420895     -0.036754      0.145111
    4711.1006     21.621521     72.925827      2.421145     -0.040282      0.143320
    4711.2006     21.647129     72.825256      2.427877     -0.040981      0.140238
    4711.3006     21.160034     72.671097      2.437793     -0.040276      0.136837
    4711.4006     21.057812     72.367432      2.449054     -0.040057      0.133620
    4711.5006     21.641823     72.051712      2.457994     -0.040287      0.127948
    4711.6006     22.149593     71.752167      2.460516     -0.041375      0.123560
    4711.7006     21.492458     71.492172      2.455049     -0.043384      0.122106
    4711.8006     19.895260     71.250549      2.444480     -0.044975      0.124483
    4711.9006     18.816010     71.046341      2.434975     -0.044698      0.124107
    4712.0006     19.222034     70.930481      2.428831     -0.041381      0.124013
    4712.1006     20.189987     70.906174      2.427780     -0.035924      0.129664
    4712.2006     20.718018     71.013809      2.429496     -0.029713      0.139061
    4712.3006     20.811913     71.276016      2.428593     -0.025026      0.144592
    4712.4006     21.009228     71.649704      2.421502     -0.022465      0.148974
    4712.5006     21.467060     72.146561      2.410397     -0.021656      0.154091
    4712.6006     21.803905     72.699188      2.401449     -0.022477      0.154429
    4712.7006     21.784115     73.276505      2.397905     -0.024313      0.151334
    4712.8006     21.320049     73.870087      2.397426     -0.026893      0.150592
    4712.9006     20.432972     74.427414      2.396380     -0.029882      0.152235
    4713.0006     19.805935     74.900146      2.393234     -0.032647      0.153091
    4713.1006     19.750885     75.222626      2.387545     -0.034922      0.148646
    4713.2006     19.883099     75.374725      2.382063     -0.036400      0.143181
    4713.3006     19.976383     75.348083      2.379919     -0.036677      0.139458
    4713.4006     20.142807     75.131744      2.383550     -0.035413      0.136081
    4713.5006     20.108471     74.782150      2.393977     -0.032765      0.132422
    4713.6006     19.828609     74.333359      2.409990     -0.029429      0.129558
