# LAS format data
~Version Information
VERS.     2.00: CWLS LOG ASCII STANDARD - VERSION 2.0
WRAP.       NO: ONE LINE PER DEPTH STEP
~Well Information
#MNEM   .UNITS    DATA                           DESCRIPTION
#----   ------    ----                           -----------
STRT    .M        3928.0000                     :First Index Value
STOP    .M        64.9000                       :Last Index Value
STEP    .M        -0.1000                       :Frame Spacing
NULL    .         -999.2500                     :Absent Value
WELL    .         L07-01                        :Well Name
NAME	.         L07-01                        :Well Name   
FLD     .         UNKNOWN                       :Field Name  
CNTY    .                                       :County
STAT    .                                       :State
CTRY    .                                       :Country
LOC     .                                       :Location
API     .                                       :API Number
UWI     .         L07-01                        :UWI Number
DATE    .                                       :Date
COMP    .         PETROLAND                     :Company Name
SRVC    .                                       :Service Company
LATI    .DEG	53.722768                       :LATITUDE 
LONG    .DEG	4.796468                        :LONGITUDE 
~Parameter Information
#MNEM   .UNITS    VALUE                          DESCRIPTION
#----   ------    -----                          -----------
TDL     .M        3934.00000                    :Total Depth (Logger)
TDD     .M        3934.00000                    :Total Depth (Driller)   
UBID    .         7264                          :Unique Borehole Id  
PDAT    .         Mean Sea Level                :Permanent Datum 
EPD     .M           0.00000                    :Elevation of Permanent Datum (PDAT) above Mean Sea Level
LMF     .         Rotary Table                  :Logging Measured From (Name of Logging Elevation Reference) 
APD     .M          37.00000                    :Elevation of Depth Reference (LMF) Above Permanent Datum
EGL     .M         -36.00000                    :Elevation of Ground Level Above Mean Sea Level  
~Curve Information
#MNEM   .UNITS    API CODE                       CURVE DESCRIPTION
#----   ------    --------                       -----------------
DEPT    .M                                      :1     Index curve
GR      .GAPI                                   :2     L07-01
DT      .US/F                                   :3     L07-01
RHOB    .G/C3                                   :4     L07-01
NPHI    .V/V                                    :5     L07-01
~Ascii Log Data
# ...
    2513.5003     59.350868     80.754745   -999.250000   -999.250000
    2513.4003     59.813362     80.095291   -999.250000   -999.250000
    2513.3003     59.997589     78.764130   -999.250000   -999.250000
    2513.2003     59.541176     77.054047   -999.250000   -999.250000
    2513.1003     58.302010     75.330414   -999.250000   -999.250000
    2513.0003     56.658051     74.007309   -999.250000   -999.250000
    2512.9003     54.998421     73.220596   -999.250000   -999.250000
    2512.8003     53.498390     72.771759   -999.250000   -999.250000
    2512.7003     52.188889     72.527084   -999.250000   -999.250000
    2512.6003     51.079086     72.580276   -999.250000   -999.250000
    2512.5003     50.181541     73.120651   -999.250000   -999.250000
    2512.4003     49.487793     73.931305   -999.250000   -999.250000
    2512.3003     49.022751     74.648346   -999.250000   -999.250000
    2512.2003     48.987984     75.207001   -999.250000   -999.250000
    2512.1003     49.513596     75.750626   -999.250000   -999.250000
    2512.0003     50.717285     76.406418   -999.250000   -999.250000
    2511.9003     52.424927     77.158646   -999.250000   -999.250000
    2511.8003     54.379189     77.932449   -999.250000   -999.250000
    2511.7003     55.991058     78.747391   -999.250000   -999.250000
    2511.6003     56.872887     79.946472   -999.250000   -999.250000
    2511.5003     57.102745     82.003250   -999.250000   -999.250000
    2511.4003     57.359100     84.349564   -999.250000   -999.250000
    2511.3003     57.945610     85.802002   -999.250000   -999.250000
    2511.2003     58.512558     85.879837   -999.250000   -999.250000
    2511.1003     58.253777     85.021347   -999.250000   -999.250000
    2511.0003     57.228035     83.916656   -999.250000   -999.250000
    2510.9003     56.405991     82.934891   -999.250000   -999.250000
    2510.8003     56.334038     82.083847   -999.250000   -999.250000
    2510.7003     56.827194     81.385132   -999.250000   -999.250000
    2510.6003     57.410034     81.054855   -999.250000   -999.250000
    2510.5003     57.840546     81.336777   -999.250000   -999.250000
    2510.4003     57.920044     82.294449   -999.250000   -999.250000
    2510.3003     57.214958     83.703186   -999.250000   -999.250000
    2510.2003     56.043396     85.190292   -999.250000   -999.250000
    2510.1003     55.184219     86.370575   -999.250000   -999.250000
    2510.0003     54.678993     86.951630   -999.250000   -999.250000
    2509.9003     55.060814     86.785751   -999.250000   -999.250000
    2509.8003     56.728294     85.940033   -999.250000   -999.250000
    2509.7003     58.745583     84.945145   -999.250000   -999.250000
    2509.6003     60.576118     84.403564   -999.250000   -999.250000
    2509.5003     62.322388     84.396713   -999.250000   -999.250000
    2509.4003     63.592987     84.508224   -999.250000   -999.250000
    2509.3003     63.585869     84.425049   -999.250000   -999.250000
    2509.2003     62.018517     84.180679   -999.250000   -999.250000
    2509.1003     59.832710     83.826065   -999.250000   -999.250000
    2509.0003     58.023048     83.408447   -999.250000   -999.250000
    2508.9003     56.817062     83.027130   -999.250000   -999.250000
    2508.8003     55.979431     82.544357   -999.250000   -999.250000
    2508.7003     55.321976     81.890442   -999.250000   -999.250000
    2508.6003     55.012238     81.078339   -999.250000   -999.250000
    2508.5003     54.773293     80.001144   -999.250000   -999.250000
    2508.4003     54.154022     78.676453   -999.250000   -999.250000
    2508.3003     53.463219     77.421997   -999.250000   -999.250000
    2508.2003     53.112488     76.449356   -999.250000   -999.250000
    2508.1003     53.764275     75.703903   -999.250000   -999.250000
    2508.0003     54.463058     75.371597   -999.250000   -999.250000
    2507.9003     55.284561     75.857635   -999.250000   -999.250000
    2507.8003     56.243317     77.327148   -999.250000   -999.250000
    2507.7003     56.195274     79.507248   -999.250000   -999.250000
    2507.6003     55.483879     81.981339   -999.250000   -999.250000
    2507.5003     56.128296     84.219711   -999.250000   -999.250000
    2507.4003     57.069008     85.997711   -999.250000   -999.250000
    2507.3003     57.605576     87.714676   -999.250000   -999.250000
    2507.2003     56.623825     89.645401   -999.250000   -999.250000
    2507.1003     55.631561     91.227173   -999.250000   -999.250000
    2507.0003     55.441360     91.493561   -999.250000   -999.250000
    2506.9003     56.336174     90.342255   -999.250000   -999.250000
    2506.8003     57.761581     88.203888   -999.250000   -999.250000
    2506.7003     59.442284     85.904633   -999.250000   -999.250000
    2506.6003     60.879654     83.984787   -999.250000   -999.250000
    2506.5003     61.961624     82.717392   -999.250000   -999.250000
    2506.4003     62.208267     82.529556   -999.250000   -999.250000
    2506.3003     61.193962     83.160843   -999.250000   -999.250000
    2506.2003     60.314507     84.422272   -999.250000   -999.250000
    2506.1003     60.832428     85.513718   -999.250000   -999.250000
    2506.0003     61.248779     86.240768   -999.250000   -999.250000
    2505.9003     61.395386     86.535919   -999.250000   -999.250000
    2505.8003     61.046692     86.191452   -999.250000   -999.250000
    2505.7003     60.758560     85.405945   -999.250000   -999.250000
    2505.6003     60.926086     84.454956   -999.250000   -999.250000
    2505.5003     61.973686     84.211533   -999.250000   -999.250000
    2505.4003     62.191284     84.407913   -999.250000   -999.250000
    2505.3003     62.272141     84.575897   -999.250000   -999.250000
    2505.2003     63.230453     84.324081   -999.250000   -999.250000
    2505.1003     63.330795     83.682022   -999.250000   -999.250000
    2505.0003     62.830864     82.943451   -999.250000   -999.250000
    2504.9003     62.331001     82.517273   -999.250000   -999.250000
    2504.8003     61.552422     82.425110   -999.250000   -999.250000
    2504.7003     60.851593     82.613785   -999.250000   -999.250000
    2504.6003     60.972916     83.194962   -999.250000   -999.250000
    2504.5003     61.584648     84.265518   -999.250000   -999.250000
    2504.4003     62.644638     85.727661   -999.250000   -999.250000
    2504.3003     63.756424     87.254059   -999.250000   -999.250000
    2504.2003     64.289230     88.337540   -999.250000   -999.250000
    2504.1003     64.003159     88.804581   -999.250000   -999.250000
    2504.0003     63.300850     88.421249   -999.250000   -999.250000
    2503.9003     62.909019     87.283081   -999.250000   -999.250000
    2503.8003     63.061348     86.126099   -999.250000   -999.250000
    2503.7003     63.443840     85.389923   -999.250000   -999.250000
    2503.6003     63.965538     84.845963   -999.250000   -999.250000
    2503.5003     64.538849     84.337509   -999.250000   -999.250000
    2503.4003     64.986908     83.844543   -999.250000   -999.250000
    2503.3003     65.022171     83.487350   -999.250000   -999.250000
    2503.2003     65.273788     83.420807   -999.250000   -999.250000
    2503.1003     66.608002     83.605515   -999.250000   -999.250000
    2503.0003     67.935974     83.890808   -999.250000   -999.250000
    2502.9003     68.201141     84.174530   -999.250000   -999.250000
    2502.8003     67.562973     84.481201   -999.250000   -999.250000
    2502.7003     67.364517     84.927399   -999.250000   -999.250000
    2502.6003     67.698349     85.601852   -999.250000   -999.250000
    2502.5003     67.399338     86.405640   -999.250000   -999.250000
    2502.4003     66.589523     87.109238   -999.250000   -999.250000
    2502.3003     66.037140     87.615982   -999.250000   -999.250000
    2502.2003     66.205246     87.950226   -999.250000   -999.250000
    2502.1003     66.825516     88.066895   -999.250000   -999.250000
