# LAS format data
~Version Information
VERS.     2.00: CWLS LOG ASCII STANDARD - VERSION 2.0
WRAP.       NO: ONE LINE PER DEPTH STEP
~Well Information
#MNEM   .UNITS    DATA                           DESCRIPTION
#----   ------    ----                           -----------
STRT    .M        0.1000                        :First Index Value
STOP    .M        4856.1008                     :Last Index Value
STEP    .M        -0.1000                       :Frame Spacing
NULL    .         -999.2500                     :Absent Value
WELL    .         L06-07                        :Well Name   
NAME	.         L06-07                        :Well Name   
FLD     .         L Block                       :Field Name  
CNTY    .                                       :County
STAT    .                                       :State
CTRY    .                                       :Country
LOC     .                                       :Location
API     .                                       :API Number
UWI     .         L06-07                        :UWI Number
DATE    .                                       :Date
COMP    .                                       :Company
SRVC    .                                       :Service Company
LATI    .DEG	53.706549                         :LATITUDE 
LONG    .DEG	4.898703                          :LONGITUDE 
~Parameter Information
#MNEM   .UNITS    VALUE                          DESCRIPTION
#----   ------    -----                          -----------
TDL     .M        4865.00000                    :Total Depth (Logger)
TDD     .M        4865.00000                    :Total Depth (Driller)   
UBID    .         8971                          :Unique Borehole Id  
PDAT    .         Mean Sea Level                :Permanent Datum 
EPD     .M           0.00000                    :Elevation of Permanent Datum (PDAT) above Mean Sea Level
LMF     .         Rotary Table                  :Logging Measured From (Name of Logging Elevation Reference) 
APD     .M          42.00000                    :Elevation of Depth Reference (LMF) Above Permanent Datum
~Curve Information
#MNEM   .UNITS    API CODE                       CURVE DESCRIPTION
#----   ------    --------                       -----------------
DEPT    .M                                      :1     Index curve
GR      .GAPI                                   :2     L06-07
DT      .US/F                                   :3     L06-07
RHOB    .G/C3                                   :4     L06-07
DRHO    .G/C3                                   :5     L06-07
NPHI    .V/V                                    :6     L06-07
~Ascii Log Data
# ...
    4425.7000    113.447632     85.998566      2.609131     -0.039172      0.268369
    4425.8000     90.341019     84.778778      2.609483     -0.039010      0.263836
    4425.9000     69.031448     83.504501      2.608533     -0.039007      0.254703
    4426.0000     67.329926     82.181625      2.608001     -0.039090      0.235768
    4426.1000     84.663269     80.739655      2.607012     -0.040095      0.205861
    4426.2000     95.716125     79.563828      2.601884     -0.042483      0.193043
    4426.3000     96.665115     78.772537      2.592510     -0.045810      0.195983
    4426.4000     95.665482     78.321945      2.582318     -0.049243      0.198316
    4426.5000     94.661102     78.107727      2.577238     -0.051341      0.211626
    4426.6000     97.624054     78.172974      2.578629     -0.051730      0.208047
    4426.7000    102.084534     78.401031      2.583067     -0.050773      0.207452
    4426.8000    100.768265     78.686203      2.587850     -0.049472      0.208138
    4426.9000     94.561249     79.010086      2.590908     -0.047844      0.220796
    4427.0000     89.579681     79.205109      2.595509     -0.045425      0.248571
    4427.1000     90.147308     79.280762      2.603217     -0.042787      0.252755
    4427.2000     92.914825     79.173355      2.607907     -0.041254      0.229722
    4427.3000     94.436157     78.864883      2.607140     -0.041722      0.205121
    4427.4000     94.004227     78.493774      2.605700     -0.042134      0.196815
    4427.5000     93.066101     78.238113      2.606193     -0.042142      0.197284
    4427.6000     92.568176     78.224731      2.601669     -0.043777      0.198530
    4427.7000     92.733597     78.421509      2.590865     -0.048468      0.204954
    4427.8000     94.259537     78.784180      2.583185     -0.053067      0.197754
    4427.9000     97.802826     79.122406      2.585021     -0.054691      0.188941
    4428.0000    101.904953     79.441284      2.592550     -0.052949      0.190511
    4428.1000    102.983734     79.747223      2.601167     -0.048812      0.191293
    4428.2000    100.379776     79.952072      2.604969     -0.044364      0.188425
    4428.3000     95.966156     80.059586      2.601088     -0.042113      0.189371
    4428.4000     92.092407     80.097672      2.590693     -0.042825      0.192009
    4428.5000     90.033966     80.017593      2.583553     -0.044719      0.190841
    4428.6000     90.354904     79.784760      2.583332     -0.046204      0.188351
    4428.7000     92.152557     79.452454      2.583262     -0.047685      0.190383
    4428.8000     93.676483     79.126511      2.580077     -0.049486      0.193609
    4428.9000     94.393753     78.858643      2.579620     -0.050507      0.197457
    4429.0000     95.333679     78.650436      2.584753     -0.049909      0.201329
    4429.1000     97.227219     78.543701      2.592468     -0.048294      0.201591
    4429.2000     99.058701     78.545776      2.597755     -0.046746      0.202613
    4429.3000     99.457642     78.600998      2.598314     -0.046161      0.209103
    4429.4000     98.621307     78.742874      2.593633     -0.046887      0.213388
    4429.5000     98.295181     78.921066      2.586924     -0.048454      0.212047
    4429.6000     99.458954     78.981537      2.582405     -0.050196      0.208705
    4429.7000    100.666611     78.970871      2.580073     -0.052045      0.207177
    4429.8000     99.897903     79.007324      2.576929     -0.054320      0.209816
    4429.9000     97.744919     79.148178      2.572047     -0.056952      0.215376
    4430.0000     96.720291     79.488907      2.568046     -0.059348      0.219191
    4430.1000     98.587692     80.089645      2.567103     -0.060875      0.219614
    4430.2000    102.883118     80.855286      2.568645     -0.061215      0.220465
    4430.3000    107.904434     81.640274      2.572802     -0.060319      0.224665
    4430.4000    111.802826     82.359756      2.579396     -0.058343      0.231413
    4430.5000    113.592972     82.986237      2.585584     -0.055993      0.239605
    4430.6000    113.332870     83.429214      2.587132     -0.054748      0.251378
    4430.7000    110.972870     83.626373      2.581752     -0.056288      0.262411
    4430.8000    106.518066     83.561325      2.570174     -0.062031      0.262133
    4430.9000    101.465485     83.186081      2.552979     -0.072861      0.252222
    4431.0000     97.803314     82.511185      2.528224     -0.089208      0.243967
    4431.1000     96.105484     81.663284      2.495632     -0.109998      0.240645
    4431.2000     95.457474     80.785233      2.460058     -0.132320      0.234215
    4431.3000     94.934540     80.006882      2.430337     -0.152153      0.220912
    4431.4000     94.041748     79.425064      2.411252     -0.166581      0.209647
    4431.5000     93.005447     79.051590      2.400970     -0.175317      0.206483
    4431.6000     92.836197     78.883209      2.397489     -0.179164      0.205959
    4431.7000     93.770050     78.903885      2.398643     -0.179496      0.202879
    4431.8000     94.510818     79.002563      2.401901     -0.177947      0.198385
    4431.9000     93.793640     79.048965      2.405993     -0.176193      0.195162
    4432.0000     91.539352     79.017624      2.409480     -0.175640      0.197461
    4432.1000     88.395386     78.930634      2.409108     -0.177015      0.205864
    4432.2000     85.210724     78.830994      2.403243     -0.179767      0.211340
    4432.3000     83.412201     78.806824      2.395152     -0.182456      0.205329
    4432.4000     84.350281     78.915848      2.389548     -0.183760      0.191718
    4432.5000     87.646286     79.193176      2.388882     -0.182989      0.182723
    4432.6000     91.686737     79.707565      2.394951     -0.179429      0.184909
    4432.7000     95.524689     80.497650      2.408850     -0.171959      0.195300
    4432.8000     99.586288     81.569611      2.431077     -0.159575      0.209972
    4432.9000    103.890793     82.814880      2.459467     -0.142697      0.223206
    4433.0000    106.633408     84.074036      2.489717     -0.122934      0.228658
    4433.1000    107.413971     85.186646      2.517581     -0.102949      0.228825
    4433.2000    108.224655     86.035507      2.539316     -0.085172      0.233763
    4433.3000    109.347046     86.594040      2.554767     -0.070332      0.244158
    4433.4000    108.931046     86.887360      2.569390     -0.056992      0.248742
    4433.5000    106.689331     87.018250      2.585834     -0.043775      0.246545
    4433.6000    104.378555     87.100204      2.600027     -0.031198      0.244235
    4433.7000    103.518707     87.195816      2.609104     -0.020591      0.242628
    4433.8000    104.234146     87.240570      2.614045     -0.013267      0.236371
    4433.9000    106.171204     87.207977      2.616910     -0.009412      0.228922
    4434.0000    108.740921     87.178192      2.618841     -0.008358      0.227237
    4434.1000    110.734650     87.138214      2.620437     -0.008321      0.228372
    4434.2000    111.306534     87.077438      2.622284     -0.007913      0.232844
    4434.3000    111.112610     87.090118      2.623624     -0.006907      0.248554
    4434.4000    111.680283     87.130463      2.622904     -0.006084      0.264303
    4434.5000    113.995636     87.110504      2.619640     -0.006221      0.274821
    4434.6000    117.504089     86.933212      2.615044     -0.007623      0.277660
    4434.7000    118.726501     86.622589      2.609399     -0.010007      0.265360
    4434.8000    115.976761     86.197281      2.603595     -0.012177      0.229843
    4434.9000    108.397736     85.658249      2.600223     -0.013178      0.180057
    4435.0000     97.741592     84.949493      2.599926     -0.012494      0.159608
    4435.1000     89.979889     83.967514      2.602537     -0.010949      0.183935
    4435.2000     86.859131     82.708557      2.607048     -0.009575      0.219247
