# LAS format data
~Version Information
VERS.     2.00: CWLS LOG ASCII STANDARD - VERSION 2.0
WRAP.       NO: ONE LINE PER DEPTH STEP
~Well Information
#MNEM   .UNITS    DATA                           DESCRIPTION
#----   ------    ----                           -----------
STRT    .M        3928.0000                     :First Index Value
STOP    .M        64.9000                       :Last Index Value
STEP    .M        -0.1000                       :Frame Spacing
NULL    .         -999.2500                     :Absent Value
WELL    .         L07-01                        :Well Name
NAME	.         L07-01                        :Well Name   
FLD     .         UNKNOWN                       :Field Name  
CNTY    .                                       :County
STAT    .                                       :State
CTRY    .                                       :Country
LOC     .                                       :Location
API     .                                       :API Number
UWI     .         L07-01                        :UWI Number
DATE    .                                       :Date
COMP    .         PETROLAND                     :Company Name
SRVC    .                                       :Service Company
LATI    .DEG	53.722768                       :LATITUDE 
LONG    .DEG	4.796468                        :LONGITUDE 
~Parameter Information
#MNEM   .UNITS    VALUE                          DESCRIPTION
#----   ------    -----                          -----------
TDL     .M        3934.00000                    :Total Depth (Logger)
TDD     .M        3934.00000                    :Total Depth (Driller)   
UBID    .         7264                          :Unique Borehole Id  
PDAT    .         Mean Sea Level                :Permanent Datum 
EPD     .M           0.00000                    :Elevation of Permanent Datum (PDAT) above Mean Sea Level
LMF     .         Rotary Table                  :Logging Measured From (Name of Logging Elevation Reference) 
APD     .M          37.00000                    :Elevation of Depth Reference (LMF) Above Permanent Datum
EGL     .M         -36.00000                    :Elevation of Ground Level Above Mean Sea Level  
~Curve Information
#MNEM   .UNITS    API CODE                       CURVE DESCRIPTION
#----   ------    --------                       -----------------
DEPT    .M                                      :1     Index curve
GR      .GAPI                                   :2     L07-01
DT      .US/F                                   :3     L07-01
RHOB    .G/C3                                   :4     L07-01
NPHI    .V/V                                    :5     L07-01
~Ascii Log Data
# ...
    3445.0001     10.457026     68.459839   -999.250000   -999.250000
    3444.9001      9.428503     68.467606   -999.250000   -999.250000
    3444.8001      8.464600     68.496109   -999.250000   -999.250000
    3444.7001      7.989104     68.513855   -999.250000   -999.250000
    3444.6001      8.691729     68.506119   -999.250000   -999.250000
    3444.5001      9.109583     68.495224   -999.250000   -999.250000
    3444.4001      9.032213     68.527298   -999.250000   -999.250000
    3444.3001      8.665312     68.607132   -999.250000   -999.250000
    3444.2001      7.898393     68.711700   -999.250000   -999.250000
    3444.1001      7.060167     68.813889   -999.250000   -999.250000
    3444.0001      7.449695     68.850540   -999.250000   -999.250000
    3443.9001      8.516340     68.805267   -999.250000   -999.250000
    3443.8001     10.498158     68.789429   -999.250000   -999.250000
    3443.7001     13.700012     68.768005   -999.250000   -999.250000
    3443.6001     16.973866     68.723572   -999.250000   -999.250000
    3443.5001     19.914772     68.716949   -999.250000   -999.250000
    3443.4001     22.782257     68.720123   -999.250000   -999.250000
    3443.3001     24.381142     68.719116   -999.250000   -999.250000
    3443.2001     24.187000     68.718719   -999.250000   -999.250000
    3443.1001     24.768536     68.692871   -999.250000   -999.250000
    3443.0001     25.876404     68.662750   -999.250000   -999.250000
    3442.9001     27.432438     68.650146   -999.250000   -999.250000
    3442.8001     29.043678     68.646912   -999.250000   -999.250000
    3442.7001     29.689476     68.645844   -999.250000   -999.250000
    3442.6001     28.526985     68.638992   -999.250000   -999.250000
    3442.5001     27.105145     68.627304   -999.250000   -999.250000
    3442.4001     26.396606     68.637222   -999.250000   -999.250000
    3442.3001     26.919018     68.651566   -999.250000   -999.250000
    3442.2001     27.049511     68.645096   -999.250000   -999.250000
    3442.1001     26.932381     68.626907   -999.250000   -999.250000
    3442.0001     26.797226     68.609085   -999.250000   -999.250000
    3441.9001     26.338470     68.601898   -999.250000   -999.250000
    3441.8001     25.892715     68.604752   -999.250000   -999.250000
    3441.7001     25.685234     68.614807   -999.250000   -999.250000
    3441.6001     25.079414     68.622864   -999.250000   -999.250000
    3441.5001     23.476959     68.619583   -999.250000   -999.250000
    3441.4001     21.378506     68.602661   -999.250000   -999.250000
    3441.3001     20.647190     68.577072   -999.250000   -999.250000
    3441.2001     20.626842     68.550888   -999.250000   -999.250000
    3441.1001     20.202183     68.533844   -999.250000   -999.250000
    3441.0001     20.415146     68.537659   -999.250000   -999.250000
    3440.9001     21.906178     68.559128   -999.250000   -999.250000
    3440.8001     24.213120     68.576569   -999.250000   -999.250000
    3440.7001     26.316612     68.575119   -999.250000   -999.250000
    3440.6001     27.415649     68.557053   -999.250000   -999.250000
    3440.5001     27.429062     68.543243   -999.250000   -999.250000
    3440.4001     26.580498     68.553955   -999.250000   -999.250000
    3440.3001     25.175018     68.583572   -999.250000   -999.250000
    3440.2001     23.559059     68.613480   -999.250000   -999.250000
    3440.1001     21.708336     68.651779   -999.250000   -999.250000
    3440.0001     19.581135     68.718979   -999.250000   -999.250000
    3439.9001     17.502769     68.795013   -999.250000   -999.250000
    3439.8001     16.733334     68.838135   -999.250000   -999.250000
    3439.7001     17.039127     68.834366   -999.250000   -999.250000
    3439.6001     17.236595     68.805511   -999.250000   -999.250000
    3439.5001     17.617397     68.784271   -999.250000   -999.250000
    3439.4001     17.919430     68.791397   -999.250000   -999.250000
    3439.3001     17.438763     68.823761   -999.250000   -999.250000
    3439.2001     17.168228     68.851440   -999.250000   -999.250000
    3439.1001     17.832870     68.859863   -999.250000   -999.250000
    3439.0001     19.069080     68.870316   -999.250000   -999.250000
    3438.9001     20.400200     68.887436   -999.250000   -999.250000
    3438.8001     21.199158     68.892151   -999.250000   -999.250000
    3438.7001     20.969227     68.867111   -999.250000   -999.250000
    3438.6001     20.867561     68.809998   -999.250000   -999.250000
    3438.5001     21.515026     68.744614   -999.250000   -999.250000
    3438.4001     22.187050     68.696945   -999.250000   -999.250000
    3438.3001     22.237755     68.670441   -999.250000   -999.250000
    3438.2001     21.869087     68.660126   -999.250000   -999.250000
    3438.1001     21.866276     68.662170   -999.250000   -999.250000
    3438.0001     22.267006     68.674225   -999.250000   -999.250000
    3437.9001     22.516190     68.698318   -999.250000   -999.250000
    3437.8001     22.141083     68.732330   -999.250000   -999.250000
    3437.7001     21.545719     68.757019   -999.250000   -999.250000
    3437.6001     21.571190     68.752563   -999.250000   -999.250000
    3437.5001     22.624462     68.722443   -999.250000   -999.250000
    3437.4001     24.138386     68.696075   -999.250000   -999.250000
    3437.3001     25.061687     68.692993   -999.250000   -999.250000
    3437.2001     25.168377     68.691864   -999.250000   -999.250000
    3437.1001     24.643829     68.665863   -999.250000   -999.250000
    3437.0001     24.138931     68.633438   -999.250000   -999.250000
    3436.9001     24.190510     68.631363   -999.250000   -999.250000
    3436.8001     24.494911     68.667740   -999.250000   -999.250000
    3436.7001     24.105042     68.712952   -999.250000   -999.250000
    3436.6001     23.949291     68.731247   -999.250000   -999.250000
    3436.5001     24.143154     68.729385   -999.250000   -999.250000
    3436.4001     23.165386     68.727386   -999.250000   -999.250000
    3436.3001     21.977566     68.740067   -999.250000   -999.250000
    3436.2001     22.006733     68.787140   -999.250000   -999.250000
    3436.1001     23.460907     68.862473   -999.250000   -999.250000
    3436.0001     25.235008     68.914215   -999.250000   -999.250000
    3435.9001     25.884682     68.904236   -999.250000   -999.250000
    3435.8001     25.892624     68.833557   -999.250000   -999.250000
    3435.7001     25.261597     68.748459   -999.250000   -999.250000
    3435.6001     24.056217     68.698273   -999.250000   -999.250000
    3435.5001     22.804714     68.695282   -999.250000   -999.250000
    3435.4001     22.151741     68.719879   -999.250000   -999.250000
    3435.3001     23.312416     68.745667   -999.250000   -999.250000
    3435.2001     24.706230     68.748260   -999.250000   -999.250000
    3435.1001     25.679752     68.721985   -999.250000   -999.250000
    3435.0001     25.200306     68.680359   -999.250000   -999.250000
    3434.9001     25.249943     68.641510   -999.250000   -999.250000
    3434.8001     25.523945     68.610611   -999.250000   -999.250000
    3434.7001     24.110752     68.613541   -999.250000   -999.250000
    3434.6001     22.526089     68.636169   -999.250000   -999.250000
    3434.5001     21.128487     68.655243   -999.250000   -999.250000
    3434.4001     20.396076     68.664551   -999.250000   -999.250000
    3434.3001     20.827599     68.642395   -999.250000   -999.250000
    3434.2001     22.866123     68.604568   -999.250000   -999.250000
    3434.1001     25.174000     68.581543   -999.250000   -999.250000
    3434.0001     27.166119     68.606659   -999.250000   -999.250000
    3433.9001     28.457642     68.656052   -999.250000   -999.250000
    3433.8001     29.198311     68.724243   -999.250000   -999.250000
    3433.7001     28.720367     68.783981   -999.250000   -999.250000
    3433.6001     26.532841     68.807846   -999.250000   -999.250000
