# LAS format data
~Version Information
VERS.     2.00: CWLS LOG ASCII STANDARD - VERSION 2.0
WRAP.       NO: ONE LINE PER DEPTH STEP
~Well Information
#MNEM   .UNITS    DATA                           DESCRIPTION
#----   ------    ----                           -----------
STRT    .M        0.1000                        :First Index Value
STOP    .M        4856.1008                     :Last Index Value
STEP    .M        -0.1000                       :Frame Spacing
NULL    .         -999.2500                     :Absent Value
WELL    .         L06-07                        :Well Name   
NAME	.         L06-07                        :Well Name   
FLD     .         L Block                       :Field Name  
CNTY    .                                       :County
STAT    .                                       :State
CTRY    .                                       :Country
LOC     .                                       :Location
API     .                                       :API Number
UWI     .         L06-07                        :UWI Number
DATE    .                                       :Date
COMP    .                                       :Company
SRVC    .                                       :Service Company
LATI    .DEG	53.706549                         :LATITUDE 
LONG    .DEG	4.898703                          :LONGITUDE 
~Parameter Information
#MNEM   .UNITS    VALUE                          DESCRIPTION
#----   ------    -----                          -----------
TDL     .M        4865.00000                    :Total Depth (Logger)
TDD     .M        4865.00000                    :Total Depth (Driller)   
UBID    .         8971                          :Unique Borehole Id  
PDAT    .         Mean Sea Level                :Permanent Datum 
EPD     .M           0.00000                    :Elevation of Permanent Datum (PDAT) above Mean Sea Level
LMF     .         Rotary Table                  :Logging Measured From (Name of Logging Elevation Reference) 
APD     .M          42.00000                    :Elevation of Depth Reference (LMF) Above Permanent Datum
~Curve Information
#MNEM   .UNITS    API CODE                       CURVE DESCRIPTION
#----   ------    --------                       -----------------
DEPT    .M                                      :1     Index curve
GR      .GAPI                                   :2     L06-07
DT      .US/F                                   :3     L06-07
RHOB    .G/C3                                   :4     L06-07
DRHO    .G/C3                                   :5     L06-07
NPHI    .V/V                                    :6     L06-07
~Ascii Log Data
# ...
    4560.1004    117.611099     79.107071      2.659786     -0.003932      0.193946
    4560.2004    117.766785     80.473145      2.662400     -0.003611      0.191054
    4560.3004    118.375473     81.496704      2.662915     -0.004285      0.187326
    4560.4004    120.842911     82.118729      2.659621     -0.005877      0.177353
    4560.5004    123.488541     82.258377      2.653607     -0.007983      0.164011
    4560.6004    123.419540     82.035416      2.647223     -0.009963      0.161097
    4560.7004    118.471802     81.570328      2.642857     -0.011419      0.174579
    4560.8004    109.655426     80.941498      2.642490     -0.011812      0.198905
    4560.9004    101.392868     80.235062      2.647147     -0.011071      0.213676
    4561.0004     97.013626     79.494644      2.653513     -0.010012      0.222880
    4561.1004     95.459076     78.765289      2.656460     -0.009794      0.232837
    4561.2004     94.770676     78.087753      2.655462     -0.010494      0.242541
    4561.3004     95.651138     77.547180      2.654620     -0.011160      0.252044
    4561.4004     98.117569     77.257904      2.656849     -0.010993      0.255414
    4561.5004    100.393570     77.138000      2.661427     -0.010002      0.247093
    4561.6004    101.915359     77.151382      2.665535     -0.008407      0.236918
    4561.7004    103.528717     77.176514      2.667392     -0.006539      0.230229
    4561.8004    104.782593     77.136185      2.665993     -0.005392      0.233617
    4561.9004    104.659348     76.945419      2.664058     -0.004571      0.240915
    4562.0004    103.199188     76.600632      2.666634     -0.003424      0.244887
    4562.1004    101.462143     76.156845      2.672792     -0.002238      0.243859
    4562.2004     99.427383     75.636642      2.676180     -0.001996      0.235897
    4562.3004     95.103821     75.227142      2.670838     -0.003191   -999.250000
    4562.4004     89.701462     74.976715      2.662315     -0.004944   -999.250000
    4562.5004     88.849472     75.041275      2.657678     -0.005832   -999.250000
    4562.6004     94.418976     75.350464      2.660618     -0.004923   -999.250000
    4562.7004    103.518066     75.846130      2.666960     -0.003087   -999.250000
    4562.8004    111.346558     76.666779      2.670473     -0.001697   -999.250000
    4562.9004    115.247482     77.608490      2.667859     -0.001636   -999.250000
    4563.0004    116.828278     78.691193      2.662128     -0.002446   -999.250000
    4563.1004    118.730240     79.587799      2.656976     -0.005685   -999.250000
    4563.2004    119.997879     80.324646      2.649671     -0.010392   -999.250000
    4563.3004    117.870056     80.773773      2.638834     -0.016097   -999.250000
    4563.4004    113.456268     81.084427      2.628301     -0.022597   -999.250000
    4563.5004    110.034607     81.362320      2.621429   -999.250000   -999.250000
    4563.6004    109.385025     81.646271      2.621379   -999.250000   -999.250000
    4563.7004    112.690613     81.937485   -999.250000   -999.250000   -999.250000
    4563.8004    118.614197     82.106644   -999.250000   -999.250000   -999.250000
    4563.9004    122.690369     81.944427   -999.250000   -999.250000   -999.250000
    4564.0004    120.908401     81.317703   -999.250000   -999.250000   -999.250000
    4564.1004    112.131348     80.333237   -999.250000   -999.250000   -999.250000
    4564.2004    100.478546     78.867874   -999.250000   -999.250000   -999.250000
    4564.3004     90.451874     77.274048   -999.250000   -999.250000   -999.250000
    4564.4004     84.004593     75.708633   -999.250000   -999.250000   -999.250000
    4564.5004     83.310471     74.522415   -999.250000   -999.250000   -999.250000
    4564.6004     88.822372     73.733704   -999.250000   -999.250000   -999.250000
    4564.7004     97.853516     73.388519   -999.250000   -999.250000   -999.250000
    4564.8004    104.675735     73.735870   -999.250000   -999.250000   -999.250000
    4564.9004    108.983810     74.446091   -999.250000   -999.250000   -999.250000
    4565.0004    114.672638     75.475342   -999.250000   -999.250000   -999.250000
    4565.1004    121.032578     76.635834   -999.250000   -999.250000   -999.250000
    4565.2004    125.972687     77.554916   -999.250000   -999.250000   -999.250000
    4565.3004    125.472626     78.064651   -999.250000   -999.250000   -999.250000
    4565.4004    118.475189     78.102448   -999.250000   -999.250000   -999.250000
    4565.5004    108.752045     77.799408   -999.250000   -999.250000   -999.250000
    4565.6004     99.819763     77.143127   -999.250000   -999.250000   -999.250000
    4565.7004     91.826401     76.176682   -999.250000   -999.250000   -999.250000
    4565.8004     84.137527     75.006714   -999.250000   -999.250000   -999.250000
    4565.9004     78.734360     73.809784   -999.250000   -999.250000   -999.250000
    4566.0004     78.359985     72.816742   -999.250000   -999.250000   -999.250000
    4566.1004     83.570145     72.116135   -999.250000   -999.250000   -999.250000
    4566.2004     91.860611     71.760376   -999.250000   -999.250000   -999.250000
    4566.3004    100.267838     71.642426   -999.250000   -999.250000   -999.250000
    4566.4004    105.946045     71.677444   -999.250000   -999.250000   -999.250000
    4566.5004    106.085358     71.790253   -999.250000   -999.250000   -999.250000
    4566.6004    100.099762     71.887039   -999.250000   -999.250000   -999.250000
    4566.7004     90.688095     71.886459   -999.250000   -999.250000   -999.250000
    4566.8004     82.436569     71.730133   -999.250000   -999.250000   -999.250000
    4566.9004     78.717316     71.433945   -999.250000   -999.250000   -999.250000
    4567.0004     80.344940     71.078522   -999.250000   -999.250000   -999.250000
    4567.1004     85.613144     70.808090   -999.250000   -999.250000   -999.250000
    4567.2004     91.742142     70.753204   -999.250000   -999.250000   -999.250000
    4567.3004     96.127609     70.980530   -999.250000   -999.250000   -999.250000
    4567.4004     97.285751     71.487518   -999.250000   -999.250000   -999.250000
    4567.5004     95.948013     72.242401   -999.250000   -999.250000   -999.250000
    4567.6004     94.901382     73.153778   -999.250000   -999.250000   -999.250000
    4567.7004     96.787674     74.126816   -999.250000   -999.250000   -999.250000
    4567.8004    102.443146     75.064575   -999.250000   -999.250000   -999.250000
    4567.9004    109.991882     75.821762   -999.250000   -999.250000   -999.250000
    4568.0004    115.394501     76.337128   -999.250000   -999.250000   -999.250000
    4568.1004    115.261673     76.672623   -999.250000   -999.250000   -999.250000
    4568.2004    111.029449     76.938110   -999.250000   -999.250000   -999.250000
    4568.3004    107.546768     77.216797   -999.250000   -999.250000   -999.250000
    4568.4004    107.670212     77.573944   -999.250000   -999.250000   -999.250000
    4568.5004    110.352371     78.048874   -999.250000   -999.250000   -999.250000
    4568.6004    113.360840     78.623627   -999.250000   -999.250000   -999.250000
    4568.7004    116.054596     79.269409   -999.250000   -999.250000   -999.250000
    4568.8004    119.063156     79.955139   -999.250000   -999.250000   -999.250000
    4568.9004    122.150391     80.655869   -999.250000   -999.250000   -999.250000
    4569.0004    123.973053     81.409897   -999.250000   -999.250000   -999.250000
    4569.1004    124.078995     82.232437   -999.250000   -999.250000   -999.250000
    4569.2004    124.284363     83.123047   -999.250000   -999.250000   -999.250000
    4569.3004    126.397354     84.092163   -999.250000   -999.250000   -999.250000
    4569.4004    129.588440     85.074982   -999.250000   -999.250000   -999.250000
    4569.5004    131.731689     86.005920   -999.250000   -999.250000   -999.250000
    4569.6004    132.536835     86.859970   -999.250000   -999.250000   -999.250000
