# LAS format data
~Version Information
VERS.     2.00: CWLS LOG ASCII STANDARD - VERSION 2.0
WRAP.       NO: ONE LINE PER DEPTH STEP
~Well Information
#MNEM   .UNITS    DATA                           DESCRIPTION
#----   ------    ----                           -----------
STRT    .M        0.1000                        :First Index Value
STOP    .M        4856.1008                     :Last Index Value
STEP    .M        -0.1000                       :Frame Spacing
NULL    .         -999.2500                     :Absent Value
WELL    .         L06-07                        :Well Name   
NAME	.         L06-07                        :Well Name   
FLD     .         L Block                       :Field Name  
CNTY    .                                       :County
STAT    .                                       :State
CTRY    .                                       :Country
LOC     .                                       :Location
API     .                                       :API Number
UWI     .         L06-07                        :UWI Number
DATE    .                                       :Date
COMP    .                                       :Company
SRVC    .                                       :Service Company
LATI    .DEG	53.706549                         :LATITUDE 
LONG    .DEG	4.898703                          :LONGITUDE 
~Parameter Information
#MNEM   .UNITS    VALUE                          DESCRIPTION
#----   ------    -----                          -----------
TDL     .M        4865.00000                    :Total Depth (Logger)
TDD     .M        4865.00000                    :Total Depth (Driller)   
UBID    .         8971                          :Unique Borehole Id  
PDAT    .         Mean Sea Level                :Permanent Datum 
EPD     .M           0.00000                    :Elevation of Permanent Datum (PDAT) above Mean Sea Level
LMF     .         Rotary Table                  :Logging Measured From (Name of Logging Elevation Reference) 
APD     .M          42.00000                    :Elevation of Depth Reference (LMF) Above Permanent Datum
~Curve Information
#MNEM   .UNITS    API CODE                       CURVE DESCRIPTION
#----   ------    --------                       -----------------
DEPT    .M                                      :1     Index curve
GR      .GAPI                                   :2     L06-07
DT      .US/F                                   :3     L06-07
RHOB    .G/C3                                   :4     L06-07
DRHO    .G/C3                                   :5     L06-07
NPHI    .V/V                                    :6     L06-07
~Ascii Log Data
# ...
    4531.3004     93.850967     76.790344      2.638195     -0.008126      0.156503
    4531.4004     94.631058     76.351532      2.644397     -0.006941      0.157224
    4531.5004     93.789749     75.991623      2.650212     -0.004452      0.160317
    4531.6004     92.917847     75.761810      2.650330     -0.002686      0.165915
    4531.7004     92.991058     75.714081      2.644581     -0.004272      0.179313
    4531.8004     94.592712     75.899368      2.639855     -0.006655      0.224908
    4531.9004     98.049957     76.459427      2.633377     -0.009383      0.249997
    4532.0004    106.041946     77.204773      2.622833     -0.012962      0.221862
    4532.1004    113.544937     77.932220      2.613729     -0.015643      0.186245
    4532.2004    116.223846     78.441040      2.607634     -0.016713      0.179453
    4532.3004    113.746597     78.686600      2.602889     -0.016357      0.185790
    4532.4004    107.128769     78.704147      2.602726     -0.014525      0.186196
    4532.5004     99.690903     78.425537      2.607283     -0.012682      0.184777
    4532.6004     95.477646     78.092468      2.610347     -0.011722      0.184923
    4532.7004     95.553497     77.713776      2.610518     -0.012123      0.185245
    4532.8004     96.043854     77.207764      2.610601     -0.012700      0.181534
    4532.9004     95.058380     76.640671      2.613729     -0.012725      0.182311
    4533.0004     94.303833     76.088898      2.617613     -0.012261      0.186496
    4533.1004     94.207184     75.708267      2.620325     -0.011928      0.189391
    4533.2004     93.862000     75.405731      2.624837     -0.011305      0.190128
    4533.3004     93.886597     75.154434      2.637201     -0.009330      0.187266
    4533.4004     95.024994     74.920731      2.652343     -0.006441      0.178119
    4533.5004     93.916962     74.714203      2.653856     -0.005278      0.169255
    4533.6004     89.786179     74.521866      2.643683     -0.006425      0.166028
    4533.7004     85.668091     74.296570      2.634221     -0.007243      0.161135
    4533.8004     85.415543     74.007828      2.635572     -0.006297      0.156577
    4533.9004     88.064758     73.629593      2.644136     -0.004447      0.155340
    4534.0004     90.493973     73.177032      2.653942     -0.002838      0.152713
    4534.1004     91.027802     72.718735      2.660961     -0.001874      0.154257
    4534.2004     90.900940     72.321198      2.662522     -0.001694      0.161707
    4534.3004     91.782852     72.041428      2.658382     -0.002318      0.172254
    4534.4004     93.466522     71.843872      2.652021     -0.003203      0.178627
    4534.5004     94.237656     71.691208      2.647912     -0.003937      0.177709
    4534.6004     93.113678     71.553085      2.646833     -0.004681      0.173413
    4534.7004     89.767380     71.398224      2.646300     -0.005760      0.169220
    4534.8004     84.085876     71.239349      2.645132     -0.006869      0.163443
    4534.9004     78.719803     71.147141      2.645600     -0.007495      0.154040
    4535.0004     79.135925     71.168396      2.647075     -0.007947      0.147257
    4535.1004     87.724457     71.315170      2.646920     -0.008730      0.157977
    4535.2004     98.823898     71.565262      2.646227     -0.009413      0.190151
    4535.3004    105.219559     71.952560      2.647229     -0.009262      0.214112
    4535.4004    104.331543     72.497330      2.649161     -0.008410      0.204111
    4535.5004     98.800247     73.189621      2.650622     -0.007424      0.196187
    4535.6004     93.332458     74.044876      2.652194     -0.006329      0.224877
    4535.7004     92.161774     75.062424      2.655465     -0.004541      0.253586
    4535.8004     96.589890     76.199066      2.661368     -0.001726      0.251100
    4535.9004    104.757706     77.365280      2.668700      0.001276      0.239929
    4536.0004    114.046951     78.487152      2.673015      0.002794      0.237525
    4536.1004    121.826141     79.482040      2.670189      0.001889      0.237335
    4536.2004    125.298035     80.242218      2.663264     -0.000284      0.237378
    4536.3004    123.391296     80.693451      2.658905     -0.001699      0.240451
    4536.4004    117.811905     80.770050      2.657541     -0.001835      0.244232
    4536.5004    110.959854     80.418945      2.655534     -0.001660      0.242569
    4536.6004    104.267670     79.632965      2.652709     -0.002070      0.235881
    4536.7004     98.338837     78.470642      2.650409     -0.003177      0.232832
    4536.8004     93.433731     77.115738      2.648815     -0.004530      0.236950
    4536.9004     90.251205     75.837204      2.648708     -0.005467      0.244883
    4537.0004     90.020828     74.877853      2.650851     -0.005518      0.252624
    4537.1004     92.459122     74.331741      2.654131     -0.004870      0.255262
    4537.2004     95.150085     74.144897      2.656002     -0.004409      0.250476
    4537.3004     96.202454     74.278122      2.654546     -0.005009   -999.250000
    4537.4004     96.261871     74.685608      2.650357     -0.006629   -999.250000
    4537.5004     97.532318     75.330750      2.646314     -0.008149   -999.250000
    4537.6004    101.252014     76.195084      2.645915     -0.008176   -999.250000
    4537.7004    106.776947     77.247253      2.651192     -0.006171   -999.250000
    4537.8004    112.319687     78.422302      2.659049     -0.003241   -999.250000
    4537.9004    116.417450     79.674255      2.661818     -0.001470   -999.250000
    4538.0004    119.282776     80.994690      2.656497     -0.002118   -999.250000
    4538.1004    122.400467     82.286728      2.647996     -0.004596   -999.250000
    4538.2004    126.612274     83.408676      2.640965     -0.007363   -999.250000
    4538.3004    130.575134     84.192276      2.636537     -0.009019   -999.250000
    4538.4004    132.800354     84.461319      2.637560     -0.008465   -999.250000
    4538.5004    133.091888     84.171326      2.648397     -0.005324   -999.250000
    4538.6004    130.658081     83.398819   -999.250000     -0.000555   -999.250000
    4538.7004    124.381958     82.227585   -999.250000   -999.250000   -999.250000
    4538.8004    114.780258     80.789536   -999.250000   -999.250000   -999.250000
    4538.9004    104.523453     79.241669   -999.250000   -999.250000   -999.250000
    4539.0004     95.966339     77.631271   -999.250000   -999.250000   -999.250000
    4539.1004     90.479813     76.076614   -999.250000   -999.250000   -999.250000
    4539.2004     88.153076     74.713333   -999.250000   -999.250000   -999.250000
    4539.3004     88.740387     73.725906   -999.250000   -999.250000   -999.250000
    4539.4004     92.917999     73.171066   -999.250000   -999.250000   -999.250000
    4539.5004    100.218445     73.041687   -999.250000   -999.250000   -999.250000
    4539.6004    107.162018     73.312241   -999.250000   -999.250000   -999.250000
    4539.7004    109.524185     73.775024   -999.250000   -999.250000   -999.250000
    4539.8004    107.435837     74.246262   -999.250000   -999.250000   -999.250000
    4539.9004    103.549957     74.592026   -999.250000   -999.250000   -999.250000
    4540.0004    100.560394     74.771576   -999.250000   -999.250000   -999.250000
    4540.1004    100.050735     74.715820   -999.250000   -999.250000   -999.250000
    4540.2004    101.360397     74.424835   -999.250000   -999.250000   -999.250000
    4540.3004    101.830826     73.961609   -999.250000   -999.250000   -999.250000
    4540.4004     99.722687     73.301392   -999.250000   -999.250000   -999.250000
    4540.5004     94.910477     72.522324   -999.250000   -999.250000   -999.250000
    4540.6004     88.465027     71.732361   -999.250000   -999.250000   -999.250000
    4540.7004     82.577011     71.112625   -999.250000   -999.250000   -999.250000
    4540.8004     79.220688     70.807190   -999.250000   -999.250000   -999.250000
