# LAS format data
~Version Information
VERS.     2.00: CWLS LOG ASCII STANDARD - VERSION 2.0
WRAP.       NO: ONE LINE PER DEPTH STEP
~Well Information
#MNEM   .UNITS    DATA                           DESCRIPTION
#----   ------    ----                           -----------
STRT    .M        0.1000                        :First Index Value
STOP    .M        4856.1008                     :Last Index Value
STEP    .M        -0.1000                       :Frame Spacing
NULL    .         -999.2500                     :Absent Value
WELL    .         L06-07                        :Well Name   
NAME	.         L06-07                        :Well Name   
FLD     .         L Block                       :Field Name  
CNTY    .                                       :County
STAT    .                                       :State
CTRY    .                                       :Country
LOC     .                                       :Location
API     .                                       :API Number
UWI     .         L06-07                        :UWI Number
DATE    .                                       :Date
COMP    .                                       :Company
SRVC    .                                       :Service Company
LATI    .DEG	53.706549                         :LATITUDE 
LONG    .DEG	4.898703                          :LONGITUDE 
~Parameter Information
#MNEM   .UNITS    VALUE                          DESCRIPTION
#----   ------    -----                          -----------
TDL     .M        4865.00000                    :Total Depth (Logger)
TDD     .M        4865.00000                    :Total Depth (Driller)   
UBID    .         8971                          :Unique Borehole Id  
PDAT    .         Mean Sea Level                :Permanent Datum 
EPD     .M           0.00000                    :Elevation of Permanent Datum (PDAT) above Mean Sea Level
LMF     .         Rotary Table                  :Logging Measured From (Name of Logging Elevation Reference) 
APD     .M          42.00000                    :Elevation of Depth Reference (LMF) Above Permanent Datum
~Curve Information
#MNEM   .UNITS    API CODE                       CURVE DESCRIPTION
#----   ------    --------                       -----------------
DEPT    .M                                      :1     Index curve
GR      .GAPI                                   :2     L06-07
DT      .US/F                                   :3     L06-07
RHOB    .G/C3                                   :4     L06-07
DRHO    .G/C3                                   :5     L06-07
NPHI    .V/V                                    :6     L06-07
~Ascii Log Data
# ...
    4627.3000     84.409912     81.892868   -999.250000   -999.250000      0.223588
    4627.4000     96.254028     80.909134   -999.250000   -999.250000      0.204811
    4627.5000    109.551956     80.045944   -999.250000   -999.250000      0.188776
    4627.6000    113.597961     79.531113   -999.250000   -999.250000      0.170084
    4627.7000    113.253922     79.468353   -999.250000   -999.250000      0.164382
    4627.8000    112.247208     79.832336   -999.250000   -999.250000      0.181058
    4627.9000    115.965057     80.669708   -999.250000   -999.250000      0.195908
    4628.0000    123.932175     81.731155   -999.250000   -999.250000      0.205428
    4628.1000    130.501923     82.809143   -999.250000   -999.250000      0.213356
    4628.2000    133.350372     83.681931   -999.250000   -999.250000      0.224093
    4628.3000    133.772858     84.334839      2.705748     -0.000061      0.229115
    4628.4000    132.196503     84.737549      2.691970     -0.003737      0.219413
    4628.5000    129.073120     84.889252      2.681814     -0.006800      0.202927
    4628.6000    125.131088     84.789062      2.683852     -0.007662      0.190394
    4628.7000    121.051437     84.409103      2.690915     -0.007058      0.188769
    4628.8000    117.492859     83.779022      2.697164     -0.006352      0.193864
    4628.9000    115.173203     82.966385      2.700303     -0.005984      0.194625
    4629.0000    113.935822     81.974579      2.702071     -0.005695      0.197260
    4629.1000    113.453918     80.943878      2.703465     -0.005404      0.201612
    4629.2000    112.855972     80.027344      2.702212     -0.005551      0.200130
    4629.3000    111.741577     79.327515      2.697125     -0.006342      0.198617
    4629.4000    111.246277     78.902145      2.691676     -0.007173      0.201639
    4629.5000    113.000397     78.756226      2.690238     -0.007207      0.203934
    4629.6000    116.752960     78.862259      2.692351     -0.006732      0.200900
    4629.7000    120.331253     79.100662      2.693765     -0.006967      0.192837
    4629.8000    122.107285     79.423889      2.693454     -0.008483      0.187155
    4629.9000    122.075912     79.803986      2.694635     -0.010402      0.189925
    4630.0000    121.465897     80.193787      2.699469     -0.011385      0.195181
    4630.1000    121.702759     80.561218      2.703763     -0.011153      0.194871
    4630.2000    122.834396     80.866394      2.702271     -0.010454      0.190452
    4630.3000    123.192444     81.051331      2.697507     -0.009929   -999.250000
    4630.4000    121.988815     81.031448      2.695712     -0.009631   -999.250000
    4630.5000    119.779984     80.769119      2.698255     -0.009513   -999.250000
    4630.6000    116.446320     80.311554      2.702308     -0.009421   -999.250000
    4630.7000    111.782867     79.713974      2.705938     -0.008863   -999.250000
    4630.8000    107.577316     79.051193      2.708854     -0.007392   -999.250000
    4630.9000    106.157089     78.415710      2.711225     -0.005256   -999.250000
    4631.0000    108.068527     77.901505      2.711757     -0.003547   -999.250000
    4631.1000    111.937180     77.601242      2.708665     -0.003517   -999.250000
    4631.2000    115.337433     77.592773      2.703378     -0.005347   -999.250000
    4631.3000    116.771393     77.907013      2.699639     -0.007800   -999.250000
    4631.4000    116.789139     78.485901      2.699913     -0.009037   -999.250000
    4631.5000    116.738113     79.261963      2.704424     -0.007722   -999.250000
    4631.6000    117.816757     80.161606      2.711983   -999.250000   -999.250000
    4631.7000    120.875046     81.116150   -999.250000   -999.250000   -999.250000
    4631.8000    125.507385     82.067963   -999.250000   -999.250000   -999.250000
    4631.9000    130.067261     82.997253   -999.250000   -999.250000   -999.250000
    4632.0000    133.336761     83.872833   -999.250000   -999.250000   -999.250000
    4632.1000    135.017944     84.520508   -999.250000   -999.250000   -999.250000
    4632.2000    134.838196     84.788467   -999.250000   -999.250000   -999.250000
    4632.3000    131.748505     84.609573   -999.250000   -999.250000   -999.250000
    4632.4000    124.844513     83.979889   -999.250000   -999.250000   -999.250000
    4632.5000    114.651810     83.007248   -999.250000   -999.250000   -999.250000
    4632.6000    104.289246     81.877884   -999.250000   -999.250000   -999.250000
    4632.7000     97.822327     80.714798   -999.250000   -999.250000   -999.250000
    4632.8000     97.285477     79.573471   -999.250000   -999.250000   -999.250000
    4632.9000    101.386581     78.558182   -999.250000   -999.250000   -999.250000
    4633.0000    108.130203     77.808578   -999.250000   -999.250000   -999.250000
    4633.1000    115.870300     77.387772   -999.250000   -999.250000   -999.250000
    4633.2000    121.663483     77.257950   -999.250000   -999.250000   -999.250000
    4633.3000    122.538025     77.301270   -999.250000   -999.250000   -999.250000
    4633.4000    118.370773     77.370132   -999.250000   -999.250000   -999.250000
    4633.5000    111.863174     77.333359   -999.250000   -999.250000   -999.250000
    4633.6000    106.104736     77.098145   -999.250000   -999.250000   -999.250000
    4633.7000    102.823395     76.699417   -999.250000   -999.250000   -999.250000
    4633.8000    102.232773     76.274841   -999.250000   -999.250000   -999.250000
    4633.9000    103.587845     75.941528   -999.250000   -999.250000   -999.250000
    4634.0000    106.106232     75.757599   -999.250000   -999.250000   -999.250000
    4634.1000    108.888260     75.761169   -999.250000   -999.250000   -999.250000
    4634.2000    110.302795     75.876953   -999.250000   -999.250000   -999.250000
    4634.3000    109.382263     76.050598   -999.250000   -999.250000   -999.250000
    4634.4000    107.221924     76.314362   -999.250000   -999.250000   -999.250000
    4634.5000    106.267609     76.685898   -999.250000   -999.250000   -999.250000
    4634.6000    108.440430     77.177856   -999.250000   -999.250000   -999.250000
    4634.7000    114.283432     77.807571   -999.250000   -999.250000   -999.250000
    4634.8000    121.051895     78.502808   -999.250000   -999.250000   -999.250000
    4634.9000    124.804596     79.198563   -999.250000   -999.250000   -999.250000
    4635.0000    125.814713     79.877945   -999.250000   -999.250000   -999.250000
    4635.1000    127.300919     80.528015   -999.250000   -999.250000   -999.250000
    4635.2000    129.074463     81.175156   -999.250000   -999.250000   -999.250000
    4635.3000    129.104645     81.852478   -999.250000   -999.250000   -999.250000
    4635.4000    127.526764     82.518753   -999.250000   -999.250000   -999.250000
    4635.5000    125.527435     83.119095   -999.250000   -999.250000   -999.250000
    4635.6000    124.129913     83.636169   -999.250000   -999.250000   -999.250000
    4635.7000    124.249969     84.081329   -999.250000   -999.250000   -999.250000
    4635.8000    126.163162     84.458527   -999.250000   -999.250000   -999.250000
    4635.9000    127.611176     84.773422   -999.250000   -999.250000   -999.250000
    4636.0000    126.132431     85.037018   -999.250000   -999.250000   -999.250000
    4636.1000    123.504608     85.131165   -999.250000   -999.250000   -999.250000
    4636.2000    123.590973     85.091034   -999.250000   -999.250000   -999.250000
    4636.3000    126.134094     84.900803   -999.250000   -999.250000   -999.250000
    4636.4000    127.086166     84.524826   -999.250000   -999.250000   -999.250000
    4636.5000    125.546036     84.058502   -999.250000   -999.250000   -999.250000
    4636.6000    124.618088     83.469376   -999.250000   -999.250000   -999.250000
    4636.7000    124.970261     82.714249   -999.250000   -999.250000   -999.250000
    4636.8000    124.649139     81.936874   -999.250000   -999.250000   -999.250000
