# LAS format data
~Version Information
VERS.     2.00: CWLS LOG ASCII STANDARD - VERSION 2.0
WRAP.       NO: ONE LINE PER DEPTH STEP
~Well Information
#MNEM   .UNITS    DATA                           DESCRIPTION
#----   ------    ----                           -----------
STRT    .M        3928.0000                     :First Index Value
STOP    .M        64.9000                       :Last Index Value
STEP    .M        -0.1000                       :Frame Spacing
NULL    .         -999.2500                     :Absent Value
WELL    .         L07-01                        :Well Name
NAME	.         L07-01                        :Well Name   
FLD     .         UNKNOWN                       :Field Name  
CNTY    .                                       :County
STAT    .                                       :State
CTRY    .                                       :Country
LOC     .                                       :Location
API     .                                       :API Number
UWI     .         L07-01                        :UWI Number
DATE    .                                       :Date
COMP    .         PETROLAND                     :Company Name
SRVC    .                                       :Service Company
LATI    .DEG	53.722768                       :LATITUDE 
LONG    .DEG	4.796468                        :LONGITUDE 
~Parameter Information
#MNEM   .UNITS    VALUE                          DESCRIPTION
#----   ------    -----                          -----------
TDL     .M        3934.00000                    :Total Depth (Logger)
TDD     .M        3934.00000                    :Total Depth (Driller)   
UBID    .         7264                          :Unique Borehole Id  
PDAT    .         Mean Sea Level                :Permanent Datum 
EPD     .M           0.00000                    :Elevation of Permanent Datum (PDAT) above Mean Sea Level
LMF     .         Rotary Table                  :Logging Measured From (Name of Logging Elevation Reference) 
APD     .M          37.00000                    :Elevation of Depth Reference (LMF) Above Permanent Datum
EGL     .M         -36.00000                    :Elevation of Ground Level Above Mean Sea Level  
~Curve Information
#MNEM   .UNITS    API CODE                       CURVE DESCRIPTION
#----   ------    --------                       -----------------
DEPT    .M                                      :1     Index curve
GR      .GAPI                                   :2     L07-01
DT      .US/F                                   :3     L07-01
RHOB    .G/C3                                   :4     L07-01
NPHI    .V/V                                    :5     L07-01
~Ascii Log Data
# ...
    3686.5001     80.936707     68.969330      2.631771      0.104653
    3686.4001     73.773956     69.280380      2.617152      0.100689
    3686.3001     66.928513     69.717224      2.590400      0.093097
    3686.2001     61.366882     70.280594      2.572537      0.087554
    3686.1001     57.393570     70.790649      2.563108      0.085827
    3686.0001     55.769714     70.954697      2.556374      0.090732
    3685.9001     56.216972     71.020157      2.549078      0.096713
    3685.8001     57.621605     71.088821      2.536333      0.102784
    3685.7001     56.091217     71.145325      2.512111      0.106993
    3685.6001     53.061050     71.160110      2.493347      0.111327
    3685.5001     48.579910     71.154282      2.485607      0.116538
    3685.4001     43.958038     71.211761      2.487894      0.122539
    3685.3001     39.445404     71.492538      2.487217      0.128741
    3685.2001     35.707657     72.347534      2.486046      0.133181
    3685.1001     33.847572     73.923096      2.497239      0.132615
    3685.0001     32.521248     75.486038      2.508983      0.130952
    3684.9001     31.688129     76.494400      2.517109      0.130970
    3684.8001     31.859184     76.799545      2.525438      0.133831
    3684.7001     33.222984     76.689056      2.535194      0.133877
    3684.6001     35.932281     76.116989      2.552813      0.129593
    3684.5001     39.291344     75.052872      2.586096      0.126575
    3684.4001     43.455925     73.920776      2.630254      0.124464
    3684.3001     49.096039     73.271042      2.669171      0.124171
    3684.2001     56.397255     73.318054      2.682935      0.126703
    3684.1001     64.395065     73.559143      2.685637      0.127168
    3684.0001     71.579666     73.358521      2.686608      0.122393
    3683.9001     76.818085     72.370499      2.680048      0.115816
    3683.8001     80.713699     70.879654      2.672582      0.107787
    3683.7001     85.345352     69.645309      2.672271      0.100920
    3683.6001     92.510880     69.086533      2.678777      0.099374
    3683.5001     98.953384     69.113678      2.684309      0.104339
    3683.4001    102.433853     69.544388      2.684744      0.112700
    3683.3001    105.248703     70.221603      2.685925      0.119135
    3683.2001    107.817062     70.974167      2.691240      0.122752
    3683.1001    109.996857     71.585159      2.700818      0.125506
    3683.0001    111.685379     71.870102      2.711895      0.129693
    3682.9001    112.232742     71.790314      2.717275      0.133707
    3682.8001    111.349548     71.448242      2.713595      0.134037
    3682.7001    109.370422     71.037079      2.704711      0.128243
    3682.6001    105.664215     70.732788      2.679757      0.119765
    3682.5001    100.635056     70.599136      2.635309      0.114919
    3682.4001     95.935928     70.586792      2.582018      0.118115
    3682.3001     92.353333     70.577133      2.555735      0.126517
    3682.2001     89.778351     70.428604      2.569940      0.134644
    3682.1001     87.912369     69.998184      2.600186      0.141000
    3682.0001     86.693878     69.134201      2.623453      0.140488
    3681.9001     86.239807     67.949783      2.632870      0.132065
    3681.8001     87.066956     66.868881      2.632562      0.122019
    3681.7001     89.248047     66.377884      2.635267      0.114039
    3681.6001     92.170700     66.585342      2.647140      0.108367
    3681.5001     95.163544     67.068069      2.658441      0.106913
    3681.4001     97.742737     67.356293      2.666146      0.108546
    3681.3001     99.874634     67.393951      2.674451      0.109986
    3681.2001    101.515396     67.338394      2.681998      0.109089
    3681.1001    102.260101     67.300537      2.687924      0.107184
    3681.0001    101.982483     67.315125      2.692901      0.106412
    3680.9001    100.916855     67.385269      2.688951      0.106228
    3680.8001     99.789185     67.489700      2.679898      0.106102
    3680.7001     99.127365     67.582855      2.677033      0.106274
    3680.6001     97.949539     67.611862      2.677753      0.105218
    3680.5001     95.778915     67.547974      2.679872      0.102362
    3680.4001     93.258118     67.389084      2.686361      0.098913
    3680.3001     90.264664     67.152100      2.681551      0.097383
    3680.2001     87.322052     66.878601      2.666948      0.097812
    3680.1001     85.661148     66.643066      2.667189      0.097422
    3680.0001     85.703064     66.495331      2.673162      0.097820
    3679.9001     86.494934     66.444992      2.668807      0.099108
    3679.8001     86.467163     66.498032      2.656068      0.097418
    3679.7001     85.281143     66.576767      2.645301      0.095070
    3679.6001     83.373596     66.575211      2.643799      0.095170
    3679.5001     81.340988     66.501144      2.642987      0.095017
    3679.4001     79.708862     66.372452      2.646196      0.094669
    3679.3001     78.433319     66.177231      2.655024      0.094623
    3679.2001     76.303665     65.900223      2.653202      0.092565
    3679.1001     73.449463     65.485550      2.644890      0.088111
    3679.0001     70.805618     64.899261      2.645269      0.083266
    3678.9001     68.058441     64.181412      2.646424      0.080094
    3678.8001     65.629044     63.543335      2.651763      0.079341
    3678.7001     64.755768     63.280762      2.668868      0.080024
    3678.6001     65.256470     63.344078      2.679877      0.082010
    3678.5001     67.086243     63.674500      2.678807      0.085764
    3678.4001     69.259857     64.150497      2.677489      0.090265
    3678.3001     71.520004     64.586868      2.668821      0.092519
    3678.2001     73.773819     64.847519      2.652225      0.091902
    3678.1001     75.783295     65.028000      2.646603      0.093728
    3678.0001     77.215881     65.235870      2.643533      0.095935
    3677.9001     77.708466     65.415039      2.638841      0.096514
    3677.8001     78.036331     65.523102      2.641530      0.095913
    3677.7001     78.053940     65.585754      2.653492      0.095487
    3677.6001     77.499619     65.623734      2.672084      0.095661
    3677.5001     76.687592     65.608002      2.672904      0.092546
    3677.4001     75.602600     65.491882      2.666736      0.089093
    3677.3001     73.935883     65.280045      2.667059      0.089815
    3677.2001     71.110825     65.025879      2.661198      0.090920
    3677.1001     68.313797     64.873978      2.655004      0.092961
    3677.0001     68.030319     64.883270      2.659442      0.096823
    3676.9001     67.885300     65.012756      2.659834      0.099722
    3676.8001     68.859650     65.250763      2.663023      0.101314
    3676.7001     72.783539     65.600143      2.683272      0.101308
    3676.6001     75.913391     66.156433      2.696102      0.101526
    3676.5001     77.762665     66.943298      2.692455      0.101996
    3676.4001     78.253036     67.716476      2.662027      0.101728
    3676.3001     78.402939     68.245865      2.639556      0.097681
    3676.2001     76.626328     68.222504      2.632060      0.089396
    3676.1001     68.865158     67.560974      2.636305      0.079702
    3676.0001     60.211533     66.277557      2.639237      0.070926
    3675.9001     52.646919     64.702179      2.640870      0.065168
    3675.8001     48.506416     63.154411      2.647984      0.064962
    3675.7001     46.011604     62.190758      2.641026      0.066940
    3675.6001     47.029076     62.517448      2.599880      0.072181
    3675.5001     55.793190     64.718842      2.516242      0.084543
    3675.4001     67.190430     68.399460      2.453128      0.102424
    3675.3001     78.865768     72.272705      2.454680      0.128904
    3675.2001     88.630875     75.378250      2.511645      0.164964
    3675.1001     96.951401     77.007599      2.576392      0.198572
