~Version ---------------------------------------------------
VERS. 1.2 : CWLS LOG ASCII STANDARD - VERSION 1.2
WRAP.  NO : One line per depth step
~Well ------------------------------------------------------
STRT  .M         9.2653 : 
STOP  .M      2301.1404 : 
STEP  .M          0.125 : 
NULL  .         -999.25 : 
COMP  .         COMPANY : UNKNOWN
WELL  .            WELL : KAMIAB-1
FLD   .           FIELD : UNKNOWN
LOC   .        LOCATION : UNKNOWN
CNTY  .          COUNTY : UNKNOWN
STAT  .           STATE : PUNJAB
CTRY  .         COUNTRY : PAKISTAN
SRVC  . SERVICE COMPANY : UNKNOWN
DATE  .        LOG DATE : UNKNOWN
UWI   .  UNIQUE WELL ID : KAMIAB-1
XCOORD.       SURFACE X : 0.0
YCOORD.       SURFACE Y : 0.0
LAT   .        LATITUDE : 0.0
LON   .       LONGITUDE : 0.0
ELEV  .M   SURFACE ELEV : 0.000 (type = KB)
~Curve Information -----------------------------------------
DEPTH.M                                             : Measured Depth
GR   .API           UNKNOWN        : GR:UNKNOWN:rC: : v0 (auto-composite)
NPHI .v/v_decimal UNKNOWN        : NPHI:UNKNOWN:rC: : v0 (auto-composite)
PROX .UNKNOWN     UNKNOWN        : PROX:UNKNOWN:rC: : v0 (auto-composite)
RHOB .UNKNOWN     UNKNOWN        : RHOB:UNKNOWN:rC: : v0 (auto-composite)
SN   .UNKNOWN       UNKNOWN        : SN:UNKNOWN:rC: : v0 (auto-composite)
SP   .UNKNOWN       UNKNOWN        : SP:UNKNOWN:rC: : v0 (auto-composite)
~Params ----------------------------------------------------
~Other -----------------------------------------------------
~ASCII -----------------------------------------------------
# ...
  163.76530   23.10240    -999.25    -999.25    -999.25    -999.25    8.61070
  163.89030   23.62350    -999.25    -999.25    -999.25    -999.25    8.25750
  164.01530   23.89630    -999.25    -999.25    -999.25    -999.25    7.95450
  164.14030   24.07120    -999.25    -999.25    -999.25    -999.25    7.88050
  164.26530   23.83490    -999.25    -999.25    -999.25    -999.25    7.91740
  164.39030   23.21690    -999.25    -999.25    -999.25    -999.25    7.90110
  164.51530   22.66140    -999.25    -999.25    -999.25    -999.25    7.82820
  164.64030   22.52070    -999.25    -999.25    -999.25    -999.25    7.78550
  164.76530   22.93950    -999.25    -999.25    -999.25    -999.25    7.83890
  164.89030   23.59820    -999.25    -999.25    -999.25    -999.25    7.89310
  165.01530   24.18240    -999.25    -999.25    -999.25    -999.25    7.97590
  165.14030   24.55490    -999.25    -999.25    -999.25    -999.25    8.11400
  165.26530   24.81270    -999.25    -999.25    -999.25    -999.25    8.27650
  165.39030   25.04160    -999.25    -999.25    -999.25    -999.25    8.40820
  165.51530   25.26820    -999.25    -999.25    -999.25    -999.25    8.44670
  165.64030   25.24190    -999.25    -999.25    -999.25    -999.25    8.38350
  165.76530   25.24080    -999.25    -999.25    -999.25    -999.25    8.28690
  165.89030   25.24360    -999.25    -999.25    -999.25    -999.25    8.11510
  166.01530   25.22880    -999.25    -999.25    -999.25    -999.25    7.99400
  166.14030   25.14060    -999.25    -999.25    -999.25    -999.25    8.01520
  166.26530   24.84700    -999.25    -999.25    -999.25    -999.25    8.08410
  166.39030   23.61500    -999.25    -999.25    -999.25    -999.25    8.17140
  166.51530   23.05400    -999.25    -999.25    -999.25    -999.25    8.12130
  166.64030   22.92220    -999.25    -999.25    -999.25    -999.25    8.08880
  166.76530   23.26300    -999.25    -999.25    -999.25    -999.25    8.08800
  166.89030   24.17080    -999.25    -999.25    -999.25    -999.25    8.02420
  167.01530   24.33570    -999.25    -999.25    -999.25    -999.25    7.83880
  167.14030   24.13950    -999.25    -999.25    -999.25    -999.25    7.57360
  167.26530   23.90610    -999.25    -999.25    -999.25    -999.25    7.26000
  167.39030   23.51800    -999.25    -999.25    -999.25    -999.25    7.08670
  167.51530   22.77570    -999.25    -999.25    -999.25    -999.25    7.13080
  167.64030   21.51100    -999.25    -999.25    2.05700    -999.25    7.22100
  167.76530   20.82610    -999.25    -999.25    2.05290    -999.25    7.22670
  167.89030   20.42750    -999.25    -999.25    2.04940    -999.25    7.28820
  168.01530   20.41650    -999.25    -999.25    2.04520    -999.25    7.34230
  168.14030   20.73240    -999.25    -999.25    2.03830    -999.25    7.35650
  168.26530   21.21560    -999.25    -999.25    2.02810    -999.25    7.35640
  168.39030   21.69950    -999.25    -999.25    2.02070    -999.25    7.55490
  168.51530   21.58290    -999.25    -999.25    2.01700    -999.25    7.73860
  168.64030   21.39680    -999.25    -999.25    2.01040    -999.25    7.92010
  168.76530   21.04170    -999.25    -999.25    1.99720    -999.25    8.03800
  168.89030   20.53560    -999.25    -999.25    1.97820    -999.25    8.06090
  169.01530   20.15220    -999.25    -999.25    1.95860    -999.25    8.01500
  169.14030   19.75520    -999.25    -999.25    1.94550    -999.25    7.94290
  169.26530   20.14550    -999.25    -999.25    1.92710    -999.25    7.86870
  169.39030   21.00500    -999.25    -999.25    1.91510    -999.25    7.82590
  169.51530   21.65040    -999.25    -999.25    1.91400    -999.25    7.84420
  169.64030   21.58750    -999.25    -999.25    1.92170    -999.25    7.93570
  169.76530   21.48410    -999.25    -999.25    1.92670    -999.25    8.06700
  169.89030   20.82400    -999.25    -999.25    1.93540    -999.25    8.24250
  170.01530   20.44040    -999.25    -999.25    1.94500    -999.25    8.35940
  170.14030   20.06280    -999.25    -999.25    1.95240    -999.25    8.50580
  170.26530   19.62590    -999.25    -999.25    1.95690    -999.25    8.67430
  170.39030   19.38120    -999.25    -999.25    1.96030    -999.25    8.73900
  170.51530   19.40330    -999.25    -999.25    1.96610    -999.25    8.57240
  170.64030   19.44600    -999.25    -999.25    1.97450    -999.25    8.43470
  170.76530   19.61050    -999.25    -999.25    1.98610    -999.25    8.41080
  170.89030   19.85980    -999.25    -999.25    1.99730    -999.25    8.53230
  171.01530   20.18060    -999.25    -999.25    2.00940    -999.25    8.75370
  171.14030   20.75320    -999.25    -999.25    2.03970    -999.25    8.88740
  171.26530   21.88450    -999.25    -999.25    2.05990    -999.25    8.98100
  171.39030   23.67000    -999.25    -999.25    2.08620    -999.25    8.98260
  171.51530   25.64260    -999.25    -999.25    2.09100    -999.25    8.95610
  171.64030   27.83040    -999.25    -999.25    2.02570    -999.25    8.96000
  171.76530   30.60030    -999.25    -999.25    1.85280    -999.25    9.03300
  171.89030   33.43650    -999.25    -999.25    1.72820    -999.25    9.17980
  172.01530   36.14560    -999.25    -999.25    1.62470    -999.25    9.28280
  172.14030   38.44600    -999.25    -999.25    1.57740    -999.25    9.09330
  172.26530   40.00620    -999.25    -999.25    1.56940    0.57770    8.53730
  172.39030   40.73840    -999.25    -999.25    1.54430    0.67390    7.63560
  172.51530   41.02800    -999.25    -999.25    1.39700    0.92100    6.47400
  172.64030   41.01340    -999.25    -999.25    1.43660    1.62020    3.77330
  172.76530   41.06220    -999.25    -999.25    1.47740    2.90290    2.10780
  172.89030   41.12530    -999.25    -999.25    1.53010    3.99420    0.98680
  173.01530   41.18650    -999.25    -999.25    1.60700    4.70850    0.18160
  173.14030   41.24410    -999.25    -999.25    1.70920    5.24660   -0.32360
  173.26530   41.23590    -999.25    -999.25    1.77570    5.58290   -0.65990
  173.39030   40.69950    -999.25    -999.25    1.84500    6.00590   -0.93410
  173.51530   40.15900    -999.25    -999.25    1.89600    6.33700   -1.15060
  173.64030   39.54010    -999.25    -999.25    1.92450    6.54540   -1.37740
  173.76530   38.96030    -999.25    -999.25    1.93500    6.67740   -1.66330
  173.89030   38.94900    -999.25    -999.25    1.93900    6.84500   -2.00100
  174.01530   39.86600    -999.25    -999.25    1.92490    7.01360   -2.38890
  174.14030   40.92640    -999.25    -999.25    1.91550    7.18080   -2.63590
  174.26530   41.63480    -999.25    -999.25    1.91440    7.34760   -2.62660
  174.39030   41.96490    -999.25    -999.25    1.91960    7.51410   -2.49110
  174.51530   42.14190    -999.25    -999.25    1.92950    7.67850   -2.44610
  174.64030   42.35430    -999.25    -999.25    1.95490    7.82940   -2.54290
  174.76530   42.56370    -999.25    -999.25    1.98030    7.89460   -2.65180
  174.89030   42.56240    -999.25    -999.25    1.99310    7.95320   -2.70900
  175.01530   42.49400    -999.25    -999.25    1.99970    8.04050   -2.73800
  175.14030   42.37800    -999.25    -999.25    2.00360    8.15010   -2.72700
  175.26530   42.02340    -999.25    -999.25    2.00310    8.23580   -2.61880
  175.39030   41.03100    -999.25    -999.25    2.03010    8.33090   -2.51300
  175.51530   37.65780    -999.25    -999.25    2.03500    8.42810   -2.33250
  175.64030   33.95060    -999.25    -999.25    2.00340    8.52520   -2.26440
  175.76530   29.57650    -999.25    -999.25    1.95310    8.62230   -2.27750
  175.89030   23.34050    -999.25    -999.25    1.91110    8.70830   -2.30690
  176.01530   14.10270    -999.25    -999.25    1.89300    8.73450   -2.45380
  176.14030    8.40890    -999.25    -999.25    1.88120    8.67560   -2.61990
  176.26530    6.82470    -999.25    -999.25    1.87620    8.65800   -2.74210
  176.39030    7.74420    -999.25    -999.25    1.87580    8.65800   -2.82590
  176.51530   11.16860    -999.25    -999.25    1.86500    8.67140   -2.89330
