~Version ---------------------------------------------------
VERS. 1.2 : CWLS LOG ASCII STANDARD - VERSION 1.2
WRAP.  NO : One line per depth step
~Well ------------------------------------------------------
STRT  .M         9.2653 : 
STOP  .M      2301.1404 : 
STEP  .M          0.125 : 
NULL  .         -999.25 : 
COMP  .         COMPANY : UNKNOWN
WELL  .            WELL : KAMIAB-1
FLD   .           FIELD : UNKNOWN
LOC   .        LOCATION : UNKNOWN
CNTY  .          COUNTY : UNKNOWN
STAT  .           STATE : PUNJAB
CTRY  .         COUNTRY : PAKISTAN
SRVC  . SERVICE COMPANY : UNKNOWN
DATE  .        LOG DATE : UNKNOWN
UWI   .  UNIQUE WELL ID : KAMIAB-1
XCOORD.       SURFACE X : 0.0
YCOORD.       SURFACE Y : 0.0
LAT   .        LATITUDE : 0.0
LON   .       LONGITUDE : 0.0
ELEV  .M   SURFACE ELEV : 0.000 (type = KB)
~Curve Information -----------------------------------------
DEPTH.M                                             : Measured Depth
GR   .API           UNKNOWN        : GR:UNKNOWN:rC: : v0 (auto-composite)
NPHI .v/v_decimal UNKNOWN        : NPHI:UNKNOWN:rC: : v0 (auto-composite)
PROX .UNKNOWN     UNKNOWN        : PROX:UNKNOWN:rC: : v0 (auto-composite)
RHOB .UNKNOWN     UNKNOWN        : RHOB:UNKNOWN:rC: : v0 (auto-composite)
SN   .UNKNOWN       UNKNOWN        : SN:UNKNOWN:rC: : v0 (auto-composite)
SP   .UNKNOWN       UNKNOWN        : SP:UNKNOWN:rC: : v0 (auto-composite)
~Params ----------------------------------------------------
~Other -----------------------------------------------------
~ASCII -----------------------------------------------------
# ...
 1580.01540   46.21000    -999.25    -999.25    2.10980    4.52950    4.96030
 1580.14040   47.43560    -999.25    -999.25    2.09570    4.50980    4.77560
 1580.26540   48.99640    -999.25    -999.25    2.06660    4.46860    4.54760
 1580.39040   50.93000    -999.25    -999.25    2.02700    4.44800    4.44600
 1580.51540   50.48920    -999.25    -999.25    1.97810    4.42930    4.67330
 1580.64040   49.53480    -999.25    -999.25    1.99370    4.41040    4.88570
 1580.76540   49.60760    -999.25    -999.25    2.03220    4.39150    5.00440
 1580.89040   51.11820    -999.25    -999.25    2.05750    4.37270    5.03820
 1581.01540   53.45250    -999.25    -999.25    2.04750    4.35380    5.04320
 1581.14040   54.59540    -999.25    -999.25    2.01710    4.33490    5.03670
 1581.26540   53.62210    -999.25    -999.25    1.98380    4.32930    5.26420
 1581.39040   53.00470    -999.25    -999.25    1.96350    4.30520    5.42830
 1581.51540   53.32410    -999.25    -999.25    1.98990    4.28890    5.55870
 1581.64040   54.85190    -999.25    -999.25    2.05090    4.29140    5.65480
 1581.76540   57.72250    -999.25    -999.25    2.07140    4.28900    5.60630
 1581.89040   58.49050    -999.25    -999.25    2.08940    4.28980    5.47260
 1582.01540   58.77580    -999.25    -999.25    2.10290    4.29260    5.34210
 1582.14040   58.40790    -999.25    -999.25    2.10990    4.29970    5.20490
 1582.26540   58.09140    -999.25    -999.25    2.11410    4.30930    5.10740
 1582.39040   58.57620    -999.25    -999.25    2.11990    4.31840    5.10200
 1582.51540   59.29940    -999.25    -999.25    2.12650    4.32830    5.17170
 1582.64040   58.96490    -999.25    -999.25    2.11180    4.33730    5.11940
 1582.76540   57.40730    -999.25    -999.25    2.10700    4.34690    5.06920
 1582.89040   55.54440    -999.25    -999.25    2.11180    4.35640    5.03120
 1583.01540   54.05020    -999.25    -999.25    2.11070    4.36410    4.95820
 1583.14040   53.14960    -999.25    -999.25    2.08060    4.36960    4.76790
 1583.26540   53.68870    -999.25    -999.25    2.07240    4.40240    4.57670
 1583.39040   52.82980    -999.25    -999.25    2.06620    4.43590    4.54810
 1583.51540   51.74490    -999.25    -999.25    2.07150    4.44650    4.68240
 1583.64040   51.52940    -999.25    -999.25    2.08410    4.45780    4.86170
 1583.76540   52.61420    -999.25    -999.25    2.09910    4.49340    4.96090
 1583.89040   53.72350    -999.25    -999.25    2.12290    4.53120    4.96000
 1584.01540   54.08130    -999.25    -999.25    2.13880    4.56810    4.96780
 1584.14040   52.76990    -999.25    -999.25    2.14420    4.60440    5.02050
 1584.26540   50.77800    -999.25    -999.25    2.14790    4.64050    5.17910
 1584.39040   49.37660    -999.25    -999.25    2.15220    4.67660    5.39060
 1584.51540   49.55450    -999.25    -999.25    2.15160    4.71270    5.52960
 1584.64040   49.42820    -999.25    -999.25    2.13360    4.74880    5.72490
 1584.76540   48.66600    -999.25    -999.25    2.12750    4.83260    5.78110
 1584.89040   47.24200    -999.25    -999.25    2.12550    4.91190    5.65100
 1585.01540   46.03220    -999.25    -999.25    2.12980    4.96940    5.46350
 1585.14040   45.76380    -999.25    -999.25    2.14180    4.99900    5.32880
 1585.26540   46.30860    -999.25    -999.25    2.15570    4.99900    5.20660
 1585.39040   46.62580    -999.25    -999.25    2.14960    4.99900    5.16550
 1585.51540   46.78510    -999.25    -999.25    2.14610    4.99900    5.06570
 1585.64040   46.38920    -999.25    -999.25    2.14460    4.99900    5.01100
 1585.76540   46.11580    -999.25    -999.25    2.14450    4.99900    5.03650
 1585.89040   46.99940    -999.25    -999.25    2.14610    4.99900    5.10550
 1586.01540   47.76680    -999.25    -999.25    2.14690    4.99900    5.08090
 1586.14040   46.98740    -999.25    -999.25    2.14770    4.99900    4.94550
 1586.26540   46.22520    -999.25    -999.25    2.14850    4.99900    4.76380
 1586.39040   46.46290    -999.25    -999.25    2.14610    4.99940    4.64270
 1586.51540   47.98560    -999.25    -999.25    2.14100    5.00020    4.67050
 1586.64040   50.11000    -999.25    -999.25    2.14100    5.00100    4.88000
 1586.76540   49.93340    -999.25    -999.25    2.14760    5.03650    5.03100
 1586.89040   50.97530    -999.25    -999.25    2.14960    5.07370    5.00360
 1587.01540   53.47820    -999.25    -999.25    2.14350    5.11140    4.99150
 1587.14040   56.22890    -999.25    -999.25    2.13460    5.16660    5.00010
 1587.26540   57.69590    -999.25    -999.25    2.13130    5.25170    4.98740
 1587.39040   58.23530    -999.25    -999.25    2.13380    5.31890    5.17600
 1587.51540   60.66380    -999.25    -999.25    2.12650    5.38550    5.33630
 1587.64040   62.22780    -999.25    -999.25    2.12000    5.45250    5.60990
 1587.76540   62.07860    -999.25    -999.25    2.10890    5.50040    5.74910
 1587.89040   60.32990    -999.25    -999.25    2.09190    5.52000    5.68420
 1588.01540   58.03090    -999.25    -999.25    2.07500    5.52000    5.63240
 1588.14040   57.41880    -999.25    -999.25    2.04550    5.52000    5.55190
 1588.26540   57.37510    -999.25    -999.25    1.90640    5.52000    5.45880
 1588.39040   57.09520    -999.25    -999.25    1.83950    5.54590    5.33650
 1588.51540   56.43090    -999.25    -999.25    1.86000    5.57080    5.25760
 1588.64040   55.42160    -999.25    -999.25    1.91600    5.57260    5.27170
 1588.76540   53.76800    -999.25    -999.25    1.97340    5.61440    5.23810
 1588.89040   50.65520    -999.25    -999.25    2.07540    5.83540    5.22520
 1589.01540   48.56830    -999.25    -999.25    2.14210    6.00760    5.23140
 1589.14040   48.11210    -999.25    -999.25    2.17820    6.15730    5.10950
 1589.26540   48.60620    -999.25    -999.25    2.18240    6.31530    4.85350
 1589.39040   48.52730    -999.25    -999.25    2.14420    6.49320    4.60700
 1589.51540   49.37980    -999.25    -999.25    2.09830    6.69670    4.44130
 1589.64040   50.74360    -999.25    -999.25    2.07930    6.94290    4.57370
 1589.76540   51.51890    -999.25    -999.25    2.09800    7.05230    4.65160
 1589.89040   51.60350    -999.25    -999.25    2.09720    7.12310    4.66920
 1590.01540   51.24820    -999.25    -999.25    2.03700    7.26750    4.69590
 1590.14040   50.74200    -999.25    -999.25    1.97130    7.41190    4.71720
 1590.26540   50.33580    -999.25    -999.25    1.94050    7.55620    4.75750
 1590.39040   51.07020    -999.25    -999.25    1.96290    7.69990    4.84320
 1590.51540   51.17620    -999.25    -999.25    2.01870    7.84400    4.96010
 1590.64040   51.28130    -999.25    -999.25    2.08260    7.99060    5.09360
 1590.76540   53.44690    -999.25    -999.25    2.13390    8.13960    5.21020
 1590.89040   55.54830    -999.25    -999.25    2.18970    8.26110    5.09780
 1591.01540   58.25780    -999.25    -999.25    2.26040    8.38380    4.81160
 1591.14040   60.22780    -999.25    -999.25    2.33230    8.61660    4.48470
 1591.26540   62.18760    -999.25    -999.25    2.35920    8.91460    4.09640
 1591.39040   64.97500    -999.25    -999.25    2.33160    9.22040    3.67780
 1591.51540   68.71400    -999.25    -999.25    2.32000    9.52900    3.40900
 1591.64040   70.28420    -999.25    -999.25    2.32160    9.76640    3.25370
 1591.76540   70.22430    -999.25    -999.25    2.32580    9.82100    3.06470
 1591.89040   71.22130    -999.25    -999.25    2.32160    9.86140    2.89250
 1592.01540   73.25840    -999.25    -999.25    2.31130    9.93440    2.73920
 1592.14040   74.76680    -999.25    -999.25    2.30390   10.02480    2.56750
 1592.26540   75.34800    -999.25    -999.25    2.30310   10.24940    2.29280
 1592.39040   72.15970    -999.25    -999.25    2.29490   10.41330    1.97020
 1592.51540   71.14600    -999.25    -999.25    2.27200   10.46620    1.84790
 1592.64040   73.20690    -999.25    -999.25    2.25520   10.39300    1.99860
 1592.76540   76.92220    -999.25    -999.25    2.25190   10.14480    2.34130
