~Version ---------------------------------------------------
VERS. 1.2 : CWLS LOG ASCII STANDARD - VERSION 1.2
WRAP.  NO : One line per depth step
~Well ------------------------------------------------------
STRT  .M         9.2653 : 
STOP  .M      2301.1404 : 
STEP  .M          0.125 : 
NULL  .         -999.25 : 
COMP  .         COMPANY : UNKNOWN
WELL  .            WELL : KAMIAB-1
FLD   .           FIELD : UNKNOWN
LOC   .        LOCATION : UNKNOWN
CNTY  .          COUNTY : UNKNOWN
STAT  .           STATE : PUNJAB
CTRY  .         COUNTRY : PAKISTAN
SRVC  . SERVICE COMPANY : UNKNOWN
DATE  .        LOG DATE : UNKNOWN
UWI   .  UNIQUE WELL ID : KAMIAB-1
XCOORD.       SURFACE X : 0.0
YCOORD.       SURFACE Y : 0.0
LAT   .        LATITUDE : 0.0
LON   .       LONGITUDE : 0.0
ELEV  .M   SURFACE ELEV : 0.000 (type = KB)
~Curve Information -----------------------------------------
DEPTH.M                                             : Measured Depth
GR   .API           UNKNOWN        : GR:UNKNOWN:rC: : v0 (auto-composite)
NPHI .v/v_decimal UNKNOWN        : NPHI:UNKNOWN:rC: : v0 (auto-composite)
PROX .UNKNOWN     UNKNOWN        : PROX:UNKNOWN:rC: : v0 (auto-composite)
RHOB .UNKNOWN     UNKNOWN        : RHOB:UNKNOWN:rC: : v0 (auto-composite)
SN   .UNKNOWN       UNKNOWN        : SN:UNKNOWN:rC: : v0 (auto-composite)
SP   .UNKNOWN       UNKNOWN        : SP:UNKNOWN:rC: : v0 (auto-composite)
~Params ----------------------------------------------------
~Other -----------------------------------------------------
~ASCII -----------------------------------------------------
# ...
  588.64030   76.20360    -999.25    -999.25    2.14030   16.56670   -7.69710
  588.76530   76.17760    -999.25    -999.25    2.12480   16.55560   -7.60380
  588.89030   75.37870    -999.25    -999.25    2.11290   16.55230   -7.41530
  589.01530   73.63500    -999.25    -999.25    2.10390   16.55480   -6.92810
  589.14030   69.89220    -999.25    -999.25    2.10750   16.44510   -6.88200
  589.26530   66.62490    -999.25    -999.25    2.12190   16.30850   -6.93320
  589.39030   63.51050    -999.25    -999.25    2.13700   16.21400   -6.75240
  589.51530   60.60460    -999.25    -999.25    2.14360   16.17550   -6.39250
  589.64030   58.87370    -999.25    -999.25    2.13800   16.13690   -6.37850
  589.76530   56.68380    -999.25    -999.25    2.13880   16.09920   -6.49980
  589.89030   55.56050    -999.25    -999.25    2.14230   16.06080   -7.10770
  590.01530   55.65640    -999.25    -999.25    2.14840   16.02230   -7.85450
  590.14030   56.94180    -999.25    -999.25    2.15600   15.98370   -7.88380
  590.26530   59.02460    -999.25    -999.25    2.16240   15.94520   -6.89270
  590.39030   60.65930    -999.25    -999.25    2.15830   15.90660   -7.16830
  590.51530   60.83880    -999.25    -999.25    2.15720   15.86810   -7.24740
  590.64030   59.27400    -999.25    -999.25    2.15930   15.83940   -7.19170
  590.76530   56.20350    -999.25    -999.25    2.15740   15.82700   -7.04540
  590.89030   52.89030    -999.25    -999.25    2.15150   15.82700   -6.87940
  591.01530   51.26590    -999.25    -999.25    2.15020   15.82700   -6.78000
  591.14030   50.44000    -999.25    -999.25    2.15430   15.82790   -6.76190
  591.26530   51.56680    -999.25    -999.25    2.15840   15.82870   -6.97100
  591.39030   53.29990    -999.25    -999.25    2.16510   15.75050   -7.23760
  591.51530   55.30820    -999.25    -999.25    2.17230   15.68310   -7.43240
  591.64030   57.36920    -999.25    -999.25    2.17470   15.70760   -7.50270
  591.76530   58.72910    -999.25    -999.25    2.16150   15.73870   -7.55680
  591.89030   57.57200    -999.25    -999.25    2.15550   15.76360   -7.16860
  592.01530   56.55360    -999.25    -999.25    2.15520   15.78760   -7.05510
  592.14030   56.49470    -999.25    -999.25    2.14620   15.81140   -7.12140
  592.26530   57.65430    -999.25    -999.25    2.12980   15.83540   -7.14640
  592.39030   59.61570    -999.25    -999.25    2.12010   15.86000   -6.92140
  592.51530   59.80510    -999.25    -999.25    2.12090   15.88380   -6.79260
  592.64030   58.42820    -999.25    -999.25    2.11820   15.90750   -6.58310
  592.76530   56.76700    -999.25    -999.25    2.11220   15.93130   -6.57910
  592.89030   55.31360    -999.25    -999.25    2.10590   15.95370   -6.54100
  593.01530   53.80810    -999.25    -999.25    2.10250   15.97000   -6.32030
  593.14030   50.88000    -999.25    -999.25    2.10500   15.97000   -6.19900
  593.26530   48.81910    -999.25    -999.25    2.10180   15.96840   -6.46130
  593.39030   47.67030    -999.25    -999.25    2.10160   15.96040   -6.81200
  593.51530   48.03980    -999.25    -999.25    2.10690   16.03880   -6.91230
  593.64030   49.31460    -999.25    -999.25    2.11870   16.15460   -6.87610
  593.76530   50.34990    -999.25    -999.25    2.13570   16.19900   -7.02880
  593.89030   51.26770    -999.25    -999.25    2.15130   16.24410   -7.20930
  594.01530   51.60470    -999.25    -999.25    2.16540   16.28920   -7.48100
  594.14030   51.77740    -999.25    -999.25    2.17060   16.33370   -7.38730
  594.26530   52.66160    -999.25    -999.25    2.16770   16.37840   -7.14780
  594.39030   54.90520    -999.25    -999.25    2.15990   16.42350   -7.15190
  594.51530   58.55400    -999.25    -999.25    2.15100   16.46800   -7.79500
  594.64030   64.01030    -999.25    -999.25    2.15100   16.51370   -7.15230
  594.76530   65.89700    -999.25    -999.25    2.15100   16.54390   -7.57750
  594.89030   62.75170    -999.25    -999.25    2.15100   16.55550   -8.10210
  595.01530   57.12800    -999.25    -999.25    2.14720   16.55570   -8.07360
  595.14030   52.78780    -999.25    -999.25    2.13720   16.55530   -7.33020
  595.26530   50.12880    -999.25    -999.25    2.13150   16.55780   -6.90950
  595.39030   47.79810    -999.25    -999.25    2.12800   16.56180   -6.68000
  595.51530   47.22650    -999.25    -999.25    2.13270   16.64780   -6.72890
  595.64030   47.13680    -999.25    -999.25    2.13940   16.70710   -6.86060
  595.76530   47.04180    -999.25    -999.25    2.14240   16.70190   -6.99510
  595.89030   47.79010    -999.25    -999.25    2.14020   16.70500   -7.20820
  596.01530   49.61500    -999.25    -999.25    2.14510   16.70500   -6.92110
  596.14030   51.62800    -999.25    -999.25    2.14730   16.70500   -6.90510
  596.26530   52.84880    -999.25    -999.25    2.14900   16.70500   -6.57500
  596.39030   52.71770    -999.25    -999.25    2.15030   16.70500   -6.11650
  596.51530   51.21170    -999.25    -999.25    2.15100   16.70500   -6.05140
  596.64030   49.27940    -999.25    -999.25    2.15100   16.70500   -7.02820
  596.76530   48.52350    -999.25    -999.25    2.15410   16.70340   -6.73710
  596.89030   49.01920    -999.25    -999.25    2.15560   16.70900   -6.78710
  597.01530   50.07980    -999.25    -999.25    2.15020   16.65190   -6.81420
  597.14030   51.45760    -999.25    -999.25    2.14180   16.56580   -6.73610
  597.26530   53.36150    -999.25    -999.25    2.14110   16.55600   -6.83700
  597.39030   55.60220    -999.25    -999.25    2.14280   16.42390   -7.02730
  597.51530   58.75960    -999.25    -999.25    2.14440   16.40610   -7.16950
  597.64030   60.52490    -999.25    -999.25    2.14860   16.25560   -7.36470
  597.76530   60.86360    -999.25    -999.25    2.15300   16.11400   -7.42180
  597.89030   60.09890    -999.25    -999.25    2.15590   16.11400   -7.28700
  598.01530   57.78510    -999.25    -999.25    2.16090   16.11400   -7.39700
  598.14030   56.64840    -999.25    -999.25    2.16820   16.11400   -7.38170
  598.26530   56.58540    -999.25    -999.25    2.16750   16.11460   -7.32390
  598.39030   56.15110    -999.25    -999.25    2.16250   16.11590   -7.26170
  598.51530   55.37900    -999.25    -999.25    2.15900   16.11700   -7.34630
  598.64030   55.31350    -999.25    -999.25    2.16040   16.09430   -7.66350
  598.76530   56.07380    -999.25    -999.25    2.14310   15.85650   -7.30180
  598.89030   54.51100    -999.25    -999.25    2.13240   15.82700   -7.59980
  599.01530   53.15000    -999.25    -999.25    2.13010   15.82700   -7.58470
  599.14030   52.51580    -999.25    -999.25    2.13140   15.77780   -7.23600
  599.26530   52.29110    -999.25    -999.25    2.13110   15.68820   -6.79010
  599.39030   51.46900    -999.25    -999.25    2.12700   15.68000   -6.55300
  599.51530   51.13780    -999.25    -999.25    2.12540   15.67840   -6.77110
  599.64030   51.34660    -999.25    -999.25    2.13080   15.67610   -6.99440
  599.76530   51.59710    -999.25    -999.25    2.13400   15.74500   -6.85230
  599.89030   51.69910    -999.25    -999.25    2.13150   15.78720   -6.62410
  600.01530   51.72530    -999.25    -999.25    2.12540   15.67080   -6.89060
  600.14030   52.06150    -999.25    -999.25    2.12870   15.55520   -7.93060
  600.26530   52.25780    -999.25    -999.25    2.13790   15.54400   -7.60050
  600.39030   51.71960    -999.25    -999.25    2.15000   15.54400   -7.33660
  600.51530   50.71480    -999.25    -999.25    2.16040   15.54400   -7.19580
  600.64030   49.99760    -999.25    -999.25    2.17040   15.54400   -7.16720
  600.76530   50.65500    -999.25    -999.25    2.18790   15.54400   -7.39570
  600.89030   51.90170    -999.25    -999.25    2.18290   15.54400   -7.61230
  601.01530   54.02910    -999.25    -999.25    2.18270   15.54270   -7.28510
  601.14030   56.71270    -999.25    -999.25    2.18250   15.54590   -7.30170
  601.26530   58.87360    -999.25    -999.25    2.18170   15.50430   -7.61490
  601.39030   59.77040    -999.25    -999.25    2.18210   15.40020   -7.81130
