~Version ---------------------------------------------------
VERS. 1.2 : CWLS LOG ASCII STANDARD - VERSION 1.2
WRAP.  NO : One line per depth step
~Well ------------------------------------------------------
STRT  .M         9.2653 : 
STOP  .M      2301.1404 : 
STEP  .M          0.125 : 
NULL  .         -999.25 : 
COMP  .         COMPANY : UNKNOWN
WELL  .            WELL : KAMIAB-1
FLD   .           FIELD : UNKNOWN
LOC   .        LOCATION : UNKNOWN
CNTY  .          COUNTY : UNKNOWN
STAT  .           STATE : PUNJAB
CTRY  .         COUNTRY : PAKISTAN
SRVC  . SERVICE COMPANY : UNKNOWN
DATE  .        LOG DATE : UNKNOWN
UWI   .  UNIQUE WELL ID : KAMIAB-1
XCOORD.       SURFACE X : 0.0
YCOORD.       SURFACE Y : 0.0
LAT   .        LATITUDE : 0.0
LON   .       LONGITUDE : 0.0
ELEV  .M   SURFACE ELEV : 0.000 (type = KB)
~Curve Information -----------------------------------------
DEPTH.M                                             : Measured Depth
GR   .API           UNKNOWN        : GR:UNKNOWN:rC: : v0 (auto-composite)
NPHI .v/v_decimal UNKNOWN        : NPHI:UNKNOWN:rC: : v0 (auto-composite)
PROX .UNKNOWN     UNKNOWN        : PROX:UNKNOWN:rC: : v0 (auto-composite)
RHOB .UNKNOWN     UNKNOWN        : RHOB:UNKNOWN:rC: : v0 (auto-composite)
SN   .UNKNOWN       UNKNOWN        : SN:UNKNOWN:rC: : v0 (auto-composite)
SP   .UNKNOWN       UNKNOWN        : SP:UNKNOWN:rC: : v0 (auto-composite)
~Params ----------------------------------------------------
~Other -----------------------------------------------------
~ASCII -----------------------------------------------------
# ...
 2004.89040   92.89310   37.54240    2.60170    2.29780    4.17710    4.62520
 2005.01540   89.06690   37.91790    3.64940    2.25300    4.07770    4.59110
 2005.14040   86.18990   36.24750    4.76170    2.22770    4.09600    4.53680
 2005.26540   83.80050   36.49120    3.04270    2.26300    3.97700    4.56060
 2005.39040   82.68330   38.53490    2.17870    2.25540    3.93540    4.52180
 2005.51540   82.31530   39.87970    1.84330    2.24420    3.94330    4.45750
 2005.64040   82.27900   39.97000    1.97310    2.23560    3.97240    4.40090
 2005.76540   82.25890   38.94840    2.51780    2.23080    4.02610    4.36200
 2005.89040   82.15800   37.28900    3.35730    2.23980    4.17700    4.30220
 2006.01540   82.04990   36.00550    2.53360    2.26330    4.30300    4.28890
 2006.14040   82.34050   36.85020    2.83400    2.28400    4.38230    4.30720
 2006.26540   82.83590   38.18370    2.96110    2.30010    4.44760    4.36400
 2006.39040   83.55930   38.38830    2.85300    2.30640    4.39960    4.41950
 2006.51540   84.68530   36.67580    3.25380    2.29890    4.13360    4.41830
 2006.64040   86.38460   36.16950    4.09480    2.29810    4.04250    4.39200
 2006.76540   88.02460   36.83460    2.65410    2.29290    3.95440    4.32520
 2006.89040   88.59490   39.02870    1.95480    2.27950    3.96370    4.27810
 2007.01540   88.42100   41.46290    1.88290    2.25570    3.98280    4.23710
 2007.14040   88.03140   42.42950    1.93920    2.22450    4.00060    4.19030
 2007.26540   87.79200   40.32100    1.99700    2.19600    4.17900    4.15200
 2007.39040   87.62350   38.07930    2.08870    2.19430    4.53420    4.19330
 2007.51540   87.54790   35.57880    2.71940    2.20690    4.58960    4.17100
 2007.64040   87.38640   33.89380    3.86300    2.22750    4.95150    4.13300
 2007.76540   87.43060   32.96740    4.58370    2.25680    5.66590    4.11730
 2007.89040   88.17220   32.42280    4.04150    2.29970    6.45380    4.13970
 2008.01540   89.98220   33.37960    3.75430    2.36610    6.99610    4.15280
 2008.14040   91.01510   30.27520    5.46020    2.33990    7.44320    4.30050
 2008.26540   90.94890   28.67330    5.49030    2.31140    8.11000    4.37560
 2008.39040   89.33230   27.26090    6.43110    2.31310    8.60540    4.36900
 2008.51540   85.81950   25.08530   10.60270    2.35300    8.71550    4.32450
 2008.64040   80.29280   22.81320   17.92420    2.41140    8.60100    4.30990
 2008.76540   74.24960   20.72010    7.15220    2.33680    8.85920    4.27710
 2008.89040   68.65320   21.97820    5.41150    2.34770    9.07020    4.24490
 2009.01540   63.70450   24.51440    6.94550    2.40060    8.69290    4.19340
 2009.14040   59.56330   26.07820    7.98610    2.44790    8.10210    4.15450
 2009.26540   56.31860   25.50550    6.60770    2.44310    7.87980    4.15660
 2009.39040   53.99110   25.21690    4.00790    2.34220    8.05610    4.14760
 2009.51540   51.61250   26.82470    3.75460    2.39450    7.84760    4.15010
 2009.64040   49.14790   25.85660    4.52440    2.39610    7.61910    4.23190
 2009.76540   47.31610   24.22070    5.87420    2.37640    7.59050    4.31020
 2009.89040   46.59750   23.75380    6.42960    2.36980    7.77720    4.36300
 2010.01540   47.11390   25.31860    4.51030    2.39030    8.00230    4.44020
 2010.14040   48.89960   27.24280    5.23910    2.41080    8.11950    4.55580
 2010.26540   50.64360   27.87020    5.08650    2.36840    8.13320    4.65560
 2010.39040   52.33650   28.31210    6.16400    2.34650    7.98830    4.72570
 2010.51540   53.66380   28.04980    6.97260    2.34530    7.89940    4.75000
 2010.64040   54.23540   26.66330    6.24970    2.33570    7.93110    4.75780
 2010.76540   53.68690   25.12610    5.99960    2.27990    7.58590    4.88660
 2010.89040   52.53520   23.79760    6.14310    2.25900    7.36170    4.79440
 2011.01540   51.40170   23.05280    4.61700    2.32070    7.07090    4.74700
 2011.14040   50.85120   22.61570    4.11450    2.38200    6.73910    4.73910
 2011.26540   50.87910   22.70900    4.63340    2.41280    6.38480    4.75460
 2011.39040   51.10790   23.77200    4.20400    2.43000    6.01650    4.78540
 2011.51540   51.85210   24.89030    3.48030    2.43000    5.67190    4.88060
 2011.64040   51.79570   26.58550    3.24550    2.42430    5.66340    4.94080
 2011.76540   51.64550   27.92050    3.07220    2.41240    5.49290    4.89280
 2011.89040   51.85890   27.93260    3.05320    2.40010    5.34800    4.84360
 2012.01540   52.56740   26.60750    3.24250    2.39130    5.32970    4.85930
 2012.14040   53.40800   25.61000    3.42000    2.38300    5.09600    4.85100
 2012.26540   54.41490   26.23560    3.79150    2.38220    5.09600    4.92190
 2012.39040   56.47670   27.17440    3.45530    2.39660    5.12520    4.94240
 2012.51540   58.87330   27.29510    3.72830    2.41140    5.12110    4.98000
 2012.64040   60.54730   26.02120    4.05380    2.41600    5.12160    5.03990
 2012.76540   60.71740   23.81560    3.35260    2.40830    5.17580    5.08980
 2012.89040   60.67810   24.53770    3.94500    2.41070    5.06170    5.11360
 2013.01540   60.54230   25.64760    3.54120    2.43310    5.08380    5.13000
 2013.14040   60.39440   25.53090    3.74580    2.45210    5.00820    5.14110
 2013.26540   60.25160   25.55100    3.75760    2.46360    4.89740    5.11700
 2013.39040   60.14860   26.52490    3.39400    2.47130    4.81290    5.06190
 2013.51540   60.15050   27.70940    3.82670    2.48550    4.73890    5.03280
 2013.64040   60.12340   27.08390    2.91580    2.51010    4.53310    5.02130
 2013.76540   60.32550   28.57720    2.49560    2.44470    4.41380    5.02430
 2013.89040   60.84110   29.89880    2.35100    2.39510    4.31720    5.04610
 2014.01540   61.58280   30.17570    2.34800    2.37740    4.26760    5.07030
 2014.14040   62.49640   29.53700    2.46430    2.36880    4.29040    5.08530
 2014.26540   64.00040   29.10370    2.96240    2.36710    4.25840    5.13620
 2014.39040   65.31450   26.40320    2.58090    2.37610    4.37350    5.09600
 2014.51540   66.76020   25.75450    2.49610    2.37840    4.43470    5.08080
 2014.64040   67.95020   26.39390    2.66750    2.37720    4.56750    5.10190
 2014.76540   68.64470   26.98120    3.02270    2.37400    4.78000    5.12780
 2014.89040   68.88670   26.39550    3.61530    2.36790    4.92660    5.09880
 2015.01540   68.88100   25.64860    4.73850    2.38590    5.15040    5.03240
 2015.14040   68.88270   25.18790    4.53400    2.40190    5.35270    4.95990
 2015.26540   68.88300   25.88080    3.91910    2.41650    5.43050    4.88110
 2015.39040   68.88330   26.87900    3.24350    2.42530    5.36900    4.82170
 2015.51540   68.88220   27.46930    2.82100    2.42330    5.19830    4.80310
 2015.64040   68.86010   29.10740    3.43670    2.40780    4.97120    4.80970
 2015.76540   68.16550   30.14910    2.97860    2.37660    4.65890    4.82480
 2015.89040   67.07740   29.89140    2.63860    2.35420    4.59860    4.83920
 2016.01540   66.03240   30.45700    2.57260    2.34540    4.49630    4.81280
 2016.14040   65.14240   32.03190    2.74720    2.34670    4.27810    4.75950
 2016.26540   64.28450   32.98770    2.96730    2.34900    4.10280    4.74300
 2016.39040   64.13030   32.58270    2.53030    2.34900    4.07330    4.83650
 2016.51540   67.39230   33.09370    2.10010    2.33220    4.09430    4.84580
 2016.64040   70.43760   33.40640    2.12290    2.31300    4.06690    4.86070
 2016.76540   72.78860   33.43100    2.38440    2.29820    4.05700    4.90470
 2016.89040   74.81840   33.18270    2.72220    2.29230    4.11120    4.96620
 2017.01540   76.90740   32.31690    3.48140    2.29890    4.14230    4.99730
 2017.14040   78.62480   32.39190    3.11360    2.32070    4.02500    5.03810
 2017.26540   79.04600   32.96290    2.64300    2.35340    3.90820    5.09280
 2017.39040   79.45230   34.61990    2.36760    2.36780    3.82440    5.11910
 2017.51540   80.17810   36.20990    2.29690    2.34950    3.80420    5.09850
 2017.64040   80.88130   36.02810    2.28950    2.30430    3.84930    5.04010
