~Version ---------------------------------------------------
VERS. 1.2 : CWLS LOG ASCII STANDARD - VERSION 1.2
WRAP.  NO : One line per depth step
~Well ------------------------------------------------------
STRT  .M         9.2653 : 
STOP  .M      2301.1404 : 
STEP  .M          0.125 : 
NULL  .         -999.25 : 
COMP  .         COMPANY : UNKNOWN
WELL  .            WELL : KAMIAB-1
FLD   .           FIELD : UNKNOWN
LOC   .        LOCATION : UNKNOWN
CNTY  .          COUNTY : UNKNOWN
STAT  .           STATE : PUNJAB
CTRY  .         COUNTRY : PAKISTAN
SRVC  . SERVICE COMPANY : UNKNOWN
DATE  .        LOG DATE : UNKNOWN
UWI   .  UNIQUE WELL ID : KAMIAB-1
XCOORD.       SURFACE X : 0.0
YCOORD.       SURFACE Y : 0.0
LAT   .        LATITUDE : 0.0
LON   .       LONGITUDE : 0.0
ELEV  .M   SURFACE ELEV : 0.000 (type = KB)
~Curve Information -----------------------------------------
DEPTH.M                                             : Measured Depth
GR   .API           UNKNOWN        : GR:UNKNOWN:rC: : v0 (auto-composite)
NPHI .v/v_decimal UNKNOWN        : NPHI:UNKNOWN:rC: : v0 (auto-composite)
PROX .UNKNOWN     UNKNOWN        : PROX:UNKNOWN:rC: : v0 (auto-composite)
RHOB .UNKNOWN     UNKNOWN        : RHOB:UNKNOWN:rC: : v0 (auto-composite)
SN   .UNKNOWN       UNKNOWN        : SN:UNKNOWN:rC: : v0 (auto-composite)
SP   .UNKNOWN       UNKNOWN        : SP:UNKNOWN:rC: : v0 (auto-composite)
~Params ----------------------------------------------------
~Other -----------------------------------------------------
~ASCII -----------------------------------------------------
# ...
  871.89030   69.87540    -999.25    -999.25    2.19880    3.71490    1.90520
  872.01530   70.29280    -999.25    -999.25    2.19640    4.15620    1.28350
  872.14030   69.81970    -999.25    -999.25    2.19600    4.49610    0.63200
  872.26530   67.71810    -999.25    -999.25    2.19810    4.68030    0.25430
  872.39030   64.93040    -999.25    -999.25    2.20270    4.73870    0.02860
  872.51530   62.56550    -999.25    -999.25    2.21000    4.73430   -0.16400
  872.64030   60.85540    -999.25    -999.25    2.22070    4.73590   -0.12710
  872.76530   59.86960    -999.25    -999.25    2.21780    4.73600   -0.10290
  872.89030   59.60070    -999.25    -999.25    2.21880    4.78030   -0.09880
  873.01530   59.87270    -999.25    -999.25    2.22440    4.85240   -0.21890
  873.14030   60.37550    -999.25    -999.25    2.23180    4.91000   -0.50890
  873.26530   60.68980    -999.25    -999.25    2.23490    4.91000   -0.93100
  873.39030   60.08450    -999.25    -999.25    2.21280    4.91000   -1.22130
  873.51530   59.13950    -999.25    -999.25    2.19850    4.84690   -1.40060
  873.64030   58.28230    -999.25    -999.25    2.18540    4.77580   -1.50420
  873.76530   57.85430    -999.25    -999.25    2.17160    4.69100   -1.50400
  873.89030   57.93850    -999.25    -999.25    2.15680    4.59550   -1.42660
  874.01530   58.20100    -999.25    -999.25    2.14200    4.52800   -1.41100
  874.14030   58.99800    -999.25    -999.25    2.13550    4.52800   -1.51650
  874.26530   60.48000    -999.25    -999.25    2.14420    4.63130   -1.80590
  874.39030   60.86070    -999.25    -999.25    2.15410    4.75140   -2.29900
  874.51530   59.79900    -999.25    -999.25    2.15820    4.82370   -2.83860
  874.64030   58.02890    -999.25    -999.25    2.15500    4.80370   -3.21440
  874.76530   57.01760    -999.25    -999.25    2.14680    4.64300   -3.43510
  874.89030   56.75450    -999.25    -999.25    2.14750    4.55390   -3.48650
  875.01530   56.70040    -999.25    -999.25    2.15410    4.46040   -3.39750
  875.14030   57.54120    -999.25    -999.25    2.15670    4.40700   -3.20720
  875.26530   59.46890    -999.25    -999.25    2.15540    4.42300   -3.00720
  875.39030   61.69390    -999.25    -999.25    2.16470    4.49030   -2.93920
  875.51530   61.64880    -999.25    -999.25    2.15240    4.62560   -2.90720
  875.64030   60.77070    -999.25    -999.25    2.13750    4.76420   -3.07060
  875.76530   59.52290    -999.25    -999.25    2.12430    4.88540   -3.20600
  875.89030   57.96350    -999.25    -999.25    2.11730    4.98100   -3.22620
  876.01530   56.03790    -999.25    -999.25    2.11800    5.04400   -3.13620
  876.14030   53.92260    -999.25    -999.25    2.11800    5.04400   -3.02880
  876.26530   53.59720    -999.25    -999.25    2.11500    4.95720   -3.13900
  876.39030   54.54320    -999.25    -999.25    2.11230    4.81780   -3.23940
  876.51530   54.63020    -999.25    -999.25    2.11500    4.65630   -3.46360
  876.64030   53.12980    -999.25    -999.25    2.12030    4.45560   -3.78520
  876.76530   51.08130    -999.25    -999.25    2.11760    4.17310   -3.98480
  876.89030   49.16210    -999.25    -999.25    2.10940    4.17560   -4.09880
  877.01530   46.62550    -999.25    -999.25    2.10120    4.09960   -4.16100
  877.14030   45.31560    -999.25    -999.25    2.09900    4.01880   -4.30160
  877.26530   45.13400    -999.25    -999.25    2.10160    3.96300   -4.43620
  877.39030   45.14210    -999.25    -999.25    2.10510    3.93500   -4.47900
  877.51530   44.05950    -999.25    -999.25    2.10600    3.90630   -4.54220
  877.64030   45.21360    -999.25    -999.25    2.10050    3.88930   -4.51210
  877.76530   46.00050    -999.25    -999.25    2.09540    3.88500   -4.63700
  877.89030   46.63170    -999.25    -999.25    2.09470    3.88500   -4.75340
  878.01530   47.18750    -999.25    -999.25    2.09870    3.89350   -4.75000
  878.14030   47.76560    -999.25    -999.25    2.10510    3.92460   -4.60930
  878.26530   51.05780    -999.25    -999.25    2.11900    3.98370   -4.47320
  878.39030   54.04360    -999.25    -999.25    2.12590    4.06880   -4.48710
  878.51530   56.35300    -999.25    -999.25    2.12120    4.13980   -4.26700
  878.64030   56.96930    -999.25    -999.25    2.11470    4.20120   -4.01600
  878.76530   55.59140    -999.25    -999.25    2.11430    4.25740   -3.94730
  878.89030   53.63120    -999.25    -999.25    2.11600    4.28940   -3.97350
  879.01530   52.92340    -999.25    -999.25    2.11760    4.33270   -3.74280
  879.14030   54.07170    -999.25    -999.25    2.11610    4.36240   -3.56560
  879.26530   55.58570    -999.25    -999.25    2.10920    4.38870   -3.31550
  879.39030   56.31160    -999.25    -999.25    2.10170    4.38600   -3.07480
  879.51530   55.76190    -999.25    -999.25    2.10160    4.31150   -3.02260
  879.64030   55.25910    -999.25    -999.25    2.10730    4.15570   -3.05620
  879.76530   54.72800    -999.25    -999.25    2.10440    4.00570   -3.44310
  879.89030   53.18100    -999.25    -999.25    2.10300    3.86080   -3.83430
  880.01530   51.69540    -999.25    -999.25    2.10370    3.71660   -4.12500
  880.14030   51.15010    -999.25    -999.25    2.10780    3.59220   -4.24560
  880.26530   51.41900    -999.25    -999.25    2.12000    3.54100   -4.12700
  880.39030   53.39190    -999.25    -999.25    2.12830    3.48800   -4.24040
  880.51530   54.45920    -999.25    -999.25    2.13130    3.43550   -4.17720
  880.64030   54.68070    -999.25    -999.25    2.13480    3.38300   -4.00080
  880.76530   54.78080    -999.25    -999.25    2.14000    3.31500   -3.81620
  880.89030   55.22770    -999.25    -999.25    2.14320    3.21700   -3.67590
  881.01530   53.87350    -999.25    -999.25    2.12920    3.11120   -3.31990
  881.14030   54.19190    -999.25    -999.25    2.12280    2.96120   -2.63360
  881.26530   55.48930    -999.25    -999.25    2.12500    2.82570   -1.50580
  881.39030   58.48350    -999.25    -999.25    2.13350    2.75900   -0.08080
  881.51530   63.52310    -999.25    -999.25    2.14100    2.75900    1.37610
  881.64030   70.09030    -999.25    -999.25    2.13730    2.76030    2.52070
  881.76530   73.17420    -999.25    -999.25    2.14550    2.79560    2.83890
  881.89030   72.75000    -999.25    -999.25    2.14770    2.83550    2.96470
  882.01530   72.35820    -999.25    -999.25    2.15140    2.87700    2.99800
  882.14030   72.81440    -999.25    -999.25    2.15900    2.91890    2.97650
  882.26530   74.10480    -999.25    -999.25    2.16880    2.96080    2.99520
  882.39030   77.19530    -999.25    -999.25    2.17370    3.00350    3.40940
  882.51530   77.92130    -999.25    -999.25    2.15700    3.03760    3.81890
  882.64030   77.46200    -999.25    -999.25    2.14850    3.09970    4.06610
  882.76530   76.47480    -999.25    -999.25    2.15010    3.21510    4.08880
  882.89030   75.14780    -999.25    -999.25    2.15970    3.38740    3.86080
  883.01530   73.27950    -999.25    -999.25    2.17150    3.59260    3.38790
  883.14030   71.40050    -999.25    -999.25    2.16410    3.72790    2.67840
  883.26530   69.45150    -999.25    -999.25    2.16160    3.94220    1.66840
  883.39030   65.76770    -999.25    -999.25    2.16310    4.22240    0.55660
  883.51530   61.68180    -999.25    -999.25    2.16470    4.56000   -0.46760
  883.64030   58.61940    -999.25    -999.25    2.16310    4.88640   -1.31690
  883.76530   56.00300    -999.25    -999.25    2.15820    4.99550   -2.13960
  883.89030   53.93520    -999.25    -999.25    2.15800    5.03470   -2.76140
  884.01530   53.68100    -999.25    -999.25    2.15980    4.98870   -3.21140
  884.14030   53.17540    -999.25    -999.25    2.15970    4.95400   -3.61150
  884.26530   51.58430    -999.25    -999.25    2.15900    4.94280   -4.00190
  884.39030   49.26800    -999.25    -999.25    2.16170    4.90340   -4.37650
  884.51530   46.95830    -999.25    -999.25    2.15840    4.83130   -4.92110
  884.64030   45.46370    -999.25    -999.25    2.15230    4.72690   -5.02530
