~Version ---------------------------------------------------
VERS. 1.2 : CWLS LOG ASCII STANDARD - VERSION 1.2
WRAP.  NO : One line per depth step
~Well ------------------------------------------------------
STRT  .M         9.2653 : 
STOP  .M      2301.1404 : 
STEP  .M          0.125 : 
NULL  .         -999.25 : 
COMP  .         COMPANY : UNKNOWN
WELL  .            WELL : KAMIAB-1
FLD   .           FIELD : UNKNOWN
LOC   .        LOCATION : UNKNOWN
CNTY  .          COUNTY : UNKNOWN
STAT  .           STATE : PUNJAB
CTRY  .         COUNTRY : PAKISTAN
SRVC  . SERVICE COMPANY : UNKNOWN
DATE  .        LOG DATE : UNKNOWN
UWI   .  UNIQUE WELL ID : KAMIAB-1
XCOORD.       SURFACE X : 0.0
YCOORD.       SURFACE Y : 0.0
LAT   .        LATITUDE : 0.0
LON   .       LONGITUDE : 0.0
ELEV  .M   SURFACE ELEV : 0.000 (type = KB)
~Curve Information -----------------------------------------
DEPTH.M                                             : Measured Depth
GR   .API           UNKNOWN        : GR:UNKNOWN:rC: : v0 (auto-composite)
NPHI .v/v_decimal UNKNOWN        : NPHI:UNKNOWN:rC: : v0 (auto-composite)
PROX .UNKNOWN     UNKNOWN        : PROX:UNKNOWN:rC: : v0 (auto-composite)
RHOB .UNKNOWN     UNKNOWN        : RHOB:UNKNOWN:rC: : v0 (auto-composite)
SN   .UNKNOWN       UNKNOWN        : SN:UNKNOWN:rC: : v0 (auto-composite)
SP   .UNKNOWN       UNKNOWN        : SP:UNKNOWN:rC: : v0 (auto-composite)
~Params ----------------------------------------------------
~Other -----------------------------------------------------
~ASCII -----------------------------------------------------
# ...
 1013.51530   71.73430    -999.25    -999.25    2.09770    3.18110    3.08940
 1013.64030   72.39940    -999.25    -999.25    2.09800    3.29570    2.95070
 1013.76530   71.64900    -999.25    -999.25    2.10300    3.39200    2.57800
 1013.89030   70.51710    -999.25    -999.25    2.11030    3.60270    2.15500
 1014.01530   70.01430    -999.25    -999.25    2.12780    3.77680    1.92230
 1014.14030   70.02510    -999.25    -999.25    2.15140    3.86580    1.78720
 1014.26530   70.91480    -999.25    -999.25    2.17200    3.91650    1.76190
 1014.39030   72.95720    -999.25    -999.25    2.18010    4.01350    1.89630
 1014.51530   74.24160    -999.25    -999.25    2.18090    4.12590    2.04230
 1014.64030   73.41190    -999.25    -999.25    2.19120    4.13870    2.19700
 1014.76530   72.46920    -999.25    -999.25    2.20380    4.11750    2.36940
 1014.89030   71.41850    -999.25    -999.25    2.22660    4.10040    2.59490
 1015.01530   69.98730    -999.25    -999.25    2.25530    4.11520    2.89880
 1015.14030   68.04000    -999.25    -999.25    2.26500    4.17500    3.27600
 1015.26530   65.84670    -999.25    -999.25    2.26750    4.36820    3.28520
 1015.39030   64.75120    -999.25    -999.25    2.25890    4.56700    3.26680
 1015.51530   64.48290    -999.25    -999.25    2.24120    4.73240    3.19260
 1015.64030   64.65820    -999.25    -999.25    2.22080    4.82460    3.13460
 1015.76530   64.81310    -999.25    -999.25    2.20580    4.83840    3.18110
 1015.89030   64.43090    -999.25    -999.25    2.20410    4.89170    3.29760
 1016.01530   64.03060    -999.25    -999.25    2.22440    4.94580    3.38390
 1016.14030   63.76710    -999.25    -999.25    2.24310    4.99930    3.37400
 1016.26530   63.56870    -999.25    -999.25    2.26070    5.05300    3.31130
 1016.39030   63.34320    -999.25    -999.25    2.27770    5.10220    3.20390
 1016.51530   62.97760    -999.25    -999.25    2.29100    5.13600    3.00420
 1016.64030   61.58240    -999.25    -999.25    2.29100    5.13600    2.70490
 1016.76530   60.92140    -999.25    -999.25    2.29510    5.10490    2.45410
 1016.89030   61.05740    -999.25    -999.25    2.29900    5.06720    2.25840
 1017.01530   61.38160    -999.25    -999.25    2.29310    5.02980    2.10580
 1017.14030   61.35220    -999.25    -999.25    2.27490    4.99850    1.96670
 1017.26530   61.40140    -999.25    -999.25    2.26840    4.99520    1.78380
 1017.39030   59.45880    -999.25    -999.25    2.25710    4.97790    1.60630
 1017.51530   57.02170    -999.25    -999.25    2.24800    4.95990    1.36120
 1017.64030   55.88030    -999.25    -999.25    2.23980    4.94180    1.02720
 1017.76530   56.26930    -999.25    -999.25    2.23260    4.92400    0.63040
 1017.89030   56.93080    -999.25    -999.25    2.22750    4.90670    0.22970
 1018.01530   56.74050    -999.25    -999.25    2.22100    4.88870   -0.17710
 1018.14030   55.98680    -999.25    -999.25    2.22350    4.87210   -0.41370
 1018.26530   55.12390    -999.25    -999.25    2.21930    4.82100   -0.54230
 1018.39030   54.26430    -999.25    -999.25    2.20520    4.76450   -0.71630
 1018.51530   53.45770    -999.25    -999.25    2.18640    4.72940   -1.02290
 1018.64030   52.81880    -999.25    -999.25    2.17820    4.69490   -1.33870
 1018.76530   52.40750    -999.25    -999.25    2.17480    4.70200   -1.70000
 1018.89030   52.50540    -999.25    -999.25    2.17090    4.73990   -2.04710
 1019.01530   52.60550    -999.25    -999.25    2.16940    4.78750   -2.48210
 1019.14030   52.70240    -999.25    -999.25    2.16790    4.83500   -2.67900
 1019.26530   52.99570    -999.25    -999.25    2.16130    4.88400   -2.26180
 1019.39030   52.35180    -999.25    -999.25    2.15390    4.94640   -2.55950
 1019.51530   52.33850    -999.25    -999.25    2.15160    4.98640   -2.78240
 1019.64030   52.15940    -999.25    -999.25    2.15590    4.99900   -3.04830
 1019.76530   51.90070    -999.25    -999.25    2.16000    5.01520   -3.34300
 1019.89030   52.07480    -999.25    -999.25    2.16050    5.03590   -3.63370
 1020.01530   53.54700    -999.25    -999.25    2.16300    4.99900   -3.90500
 1020.14030   54.97990    -999.25    -999.25    2.15970    4.78400   -4.09950
 1020.26530   57.04830    -999.25    -999.25    2.15580    4.57810   -4.28750
 1020.39030   58.25480    -999.25    -999.25    2.15680    4.29300   -4.45200
 1020.51530   57.77510    -999.25    -999.25    2.15770    4.00370   -4.57910
 1020.64030   55.69420    -999.25    -999.25    2.15180    3.84310   -4.65360
 1020.76530   54.13340    -999.25    -999.25    2.15020    3.78730   -4.63390
 1020.89030   53.44320    -999.25    -999.25    2.14850    3.80350   -4.66090
 1021.01530   53.48780    -999.25    -999.25    2.14740    3.90770   -4.76270
 1021.14030   54.18280    -999.25    -999.25    2.14550    4.04230   -4.81720
 1021.26530   55.28210    -999.25    -999.25    2.14080    4.16070   -4.71320
 1021.39030   56.37800    -999.25    -999.25    2.13160    4.25210   -4.40550
 1021.51530   57.59430    -999.25    -999.25    2.11770    4.32760   -4.20870
 1021.64030   58.43590    -999.25    -999.25    2.11500    4.35920   -4.01710
 1021.76530   58.57720    -999.25    -999.25    2.11600    4.38690   -3.92880
 1021.89030   57.85140    -999.25    -999.25    2.11550    4.40700   -3.90950
 1022.01530   56.34710    -999.25    -999.25    2.11180    4.40700   -3.88790
 1022.14030   54.68540    -999.25    -999.25    2.11010    4.40700   -3.87400
 1022.26530   53.92320    -999.25    -999.25    2.11530    4.37720   -3.64140
 1022.39030   55.22490    -999.25    -999.25    2.11520    4.32530   -3.43150
 1022.51530   57.32630    -999.25    -999.25    2.11360    4.27480   -3.38480
 1022.64030   59.08290    -999.25    -999.25    2.11250    4.23370   -3.43200
 1022.76530   59.87460    -999.25    -999.25    2.11110    4.19270   -3.33670
 1022.89030   59.45220    -999.25    -999.25    2.11270    4.15170   -3.42200
 1023.01530   58.94760    -999.25    -999.25    2.11570    4.11140   -3.52450
 1023.14030   57.03250    -999.25    -999.25    2.11700    4.06110   -3.54580
 1023.26530   54.91060    -999.25    -999.25    2.11700    4.02730   -3.53970
 1023.39030   54.32440    -999.25    -999.25    2.11770    4.01730   -3.52900
 1023.51530   56.21090    -999.25    -999.25    2.12180    3.95740   -3.32150
 1023.64030   55.99770    -999.25    -999.25    2.12280    3.95580   -3.22330
 1023.76530   55.20290    -999.25    -999.25    2.12970    3.96570   -3.13220
 1023.89030   54.36240    -999.25    -999.25    2.14000    3.99930   -3.08600
 1024.01540   54.25170    -999.25    -999.25    2.14750    4.05180   -3.12950
 1024.14040   55.38650    -999.25    -999.25    2.14440    4.10260   -3.28890
 1024.26540   54.58140    -999.25    -999.25    2.12560    4.13370   -3.46930
 1024.39040   56.22830    -999.25    -999.25    2.11660    4.16630   -3.41540
 1024.51540   57.40080    -999.25    -999.25    2.11510    4.13580   -3.16650
 1024.64040   57.90410    -999.25    -999.25    2.11670    4.08820   -2.88110
 1024.76540   58.06070    -999.25    -999.25    2.11820    4.04960   -2.64640
 1024.89040   57.88200    -999.25    -999.25    2.11900    3.94900   -2.33800
 1025.01540   57.87800    -999.25    -999.25    2.11820    3.89720   -2.05650
 1025.14040   57.41780    -999.25    -999.25    2.12050    3.86300   -1.89560
 1025.26540   57.08500    -999.25    -999.25    2.12110    3.93000   -1.77580
 1025.39040   57.13110    -999.25    -999.25    2.12110    4.04770   -1.58270
 1025.51540   57.54330    -999.25    -999.25    2.12490    4.09770   -1.22200
 1025.64040   58.28920    -999.25    -999.25    2.13310    4.06730   -0.75430
 1025.76540   58.07950    -999.25    -999.25    2.14280    3.89530   -0.15370
 1025.89040   58.23790    -999.25    -999.25    2.14930    3.70580    0.65020
 1026.01540   58.35970    -999.25    -999.25    2.15680    3.51640    1.53430
 1026.14040   58.34950    -999.25    -999.25    2.16900    3.33580    2.34530
 1026.26540   58.99100    -999.25    -999.25    2.18600    3.18700    2.95200
