~Version ---------------------------------------------------
VERS. 1.2 : CWLS LOG ASCII STANDARD - VERSION 1.2
WRAP.  NO : One line per depth step
~Well ------------------------------------------------------
STRT  .M         9.2653 : 
STOP  .M      2301.1404 : 
STEP  .M          0.125 : 
NULL  .         -999.25 : 
COMP  .         COMPANY : UNKNOWN
WELL  .            WELL : KAMIAB-1
FLD   .           FIELD : UNKNOWN
LOC   .        LOCATION : UNKNOWN
CNTY  .          COUNTY : UNKNOWN
STAT  .           STATE : PUNJAB
CTRY  .         COUNTRY : PAKISTAN
SRVC  . SERVICE COMPANY : UNKNOWN
DATE  .        LOG DATE : UNKNOWN
UWI   .  UNIQUE WELL ID : KAMIAB-1
XCOORD.       SURFACE X : 0.0
YCOORD.       SURFACE Y : 0.0
LAT   .        LATITUDE : 0.0
LON   .       LONGITUDE : 0.0
ELEV  .M   SURFACE ELEV : 0.000 (type = KB)
~Curve Information -----------------------------------------
DEPTH.M                                             : Measured Depth
GR   .API           UNKNOWN        : GR:UNKNOWN:rC: : v0 (auto-composite)
NPHI .v/v_decimal UNKNOWN        : NPHI:UNKNOWN:rC: : v0 (auto-composite)
PROX .UNKNOWN     UNKNOWN        : PROX:UNKNOWN:rC: : v0 (auto-composite)
RHOB .UNKNOWN     UNKNOWN        : RHOB:UNKNOWN:rC: : v0 (auto-composite)
SN   .UNKNOWN       UNKNOWN        : SN:UNKNOWN:rC: : v0 (auto-composite)
SP   .UNKNOWN       UNKNOWN        : SP:UNKNOWN:rC: : v0 (auto-composite)
~Params ----------------------------------------------------
~Other -----------------------------------------------------
~ASCII -----------------------------------------------------
# ...
 1296.76540   76.06090    -999.25    -999.25    1.96770    4.51440    4.80600
 1296.89040   76.95570    -999.25    -999.25    1.98680    4.42270    5.08270
 1297.01540   74.26370    -999.25    -999.25    1.99960    4.37970    5.33250
 1297.14040   71.96630    -999.25    -999.25    2.01180    4.36800    5.38280
 1297.26540   71.45870    -999.25    -999.25    2.02620    4.37670    5.24370
 1297.39040   70.41260    -999.25    -999.25    2.04180    4.41040    5.12090
 1297.51540   69.27880    -999.25    -999.25    2.05740    4.47600    5.19550
 1297.64040   68.06560    -999.25    -999.25    2.06680    4.51500    5.10420
 1297.76540   67.41220    -999.25    -999.25    2.07500    4.56530    4.98040
 1297.89040   68.55610    -999.25    -999.25    2.08060    4.63500    4.85580
 1298.01540   71.69140    -999.25    -999.25    2.08010    4.71880    4.74570
 1298.14040   73.86000    -999.25    -999.25    2.06950    4.80330    4.71530
 1298.26540   74.97990    -999.25    -999.25    2.06980    4.88700    4.81520
 1298.39040   72.93100    -999.25    -999.25    2.07420    4.97130    4.75230
 1298.51540   71.66530    -999.25    -999.25    2.07490    5.04510    4.61400
 1298.64040   72.43450    -999.25    -999.25    2.06860    5.09000    4.41170
 1298.76540   73.80370    -999.25    -999.25    2.05660    5.09310    4.10020
 1298.89040   74.75400    -999.25    -999.25    2.03940    5.13250    3.87630
 1299.01540   74.46640    -999.25    -999.25    2.03560    5.13590    3.98820
 1299.14040   71.61140    -999.25    -999.25    2.01400    5.13610    4.14420
 1299.26540   68.23150    -999.25    -999.25    2.01820    5.09410    4.23240
 1299.39040   66.40770    -999.25    -999.25    2.06630    4.98860    4.23730
 1299.51540   66.39130    -999.25    -999.25    2.08760    4.86800    4.24880
 1299.64040   68.62280    -999.25    -999.25    2.10090    4.72730    4.39900
 1299.76540   72.03700    -999.25    -999.25    2.08960    4.61560    4.60680
 1299.89040   75.76170    -999.25    -999.25    2.07830    4.50550    4.81010
 1300.01540   79.35950    -999.25    -999.25    2.07710    4.39650    5.00400
 1300.14040   82.74480    -999.25    -999.25    2.08330    4.30460    5.19460
 1300.26540   85.93730    -999.25    -999.25    2.08570    4.22590    5.20930
 1300.39040   86.26500    -999.25    -999.25    2.07360    4.14780    5.28740
 1300.51540   85.34420    -999.25    -999.25    2.06520    4.07050    5.15980
 1300.64040   80.88780    -999.25    -999.25    2.05940    4.02800    4.93750
 1300.76540   74.25070    -999.25    -999.25    2.05350    4.02800    4.75870
 1300.89040   73.05400    -999.25    -999.25    2.04700    4.02800    4.68000
 1301.01540   70.94910    -999.25    -999.25    2.03950    4.02800    4.65510
 1301.14040   69.10400    -999.25    -999.25    2.03410    4.02800    4.64940
 1301.26540   68.15100    -999.25    -999.25    2.03200    4.02800    4.63630
 1301.39040   67.89290    -999.25    -999.25    2.03320    4.03350    4.64110
 1301.51540   67.74400    -999.25    -999.25    2.03740    4.05190    4.66400
 1301.64040   67.42150    -999.25    -999.25    2.04810    4.08880    4.48430
 1301.76540   65.07270    -999.25    -999.25    2.04900    4.12580    4.19360
 1301.89040   64.53320    -999.25    -999.25    2.05360    4.16320    3.97700
 1302.01540   65.23780    -999.25    -999.25    2.06090    4.19470    3.87830
 1302.14040   66.05700    -999.25    -999.25    2.06340    4.20500    3.94550
 1302.26540   66.09470    -999.25    -999.25    2.04980    4.17500    4.23080
 1302.39040   67.78420    -999.25    -999.25    2.04490    4.17500    4.41050
 1302.51540   68.69970    -999.25    -999.25    2.04060    4.20050    4.42490
 1302.64040   69.80090    -999.25    -999.25    2.03260    4.23170    4.43520
 1302.76540   71.66920    -999.25    -999.25    2.02350    4.27500    4.45660
 1302.89040   74.54480    -999.25    -999.25    2.01840    4.33330    4.47450
 1303.01540   78.18870    -999.25    -999.25    2.02090    4.36610    4.56480
 1303.14040   80.54090    -999.25    -999.25    2.02640    4.36800    4.69670
 1303.26540   80.94200    -999.25    -999.25    2.03810    4.41480    4.72570
 1303.39040   80.49710    -999.25    -999.25    2.05040    4.46350    4.70840
 1303.51540   79.95930    -999.25    -999.25    2.05800    4.49650    4.68450
 1303.64040   79.53210    -999.25    -999.25    2.05750    4.52810    4.65330
 1303.76540   79.53370    -999.25    -999.25    2.04930    4.52890    4.55000
 1303.89040   78.87920    -999.25    -999.25    2.04040    4.52900    4.61860
 1304.01540   77.29390    -999.25    -999.25    2.03850    4.50690    4.63650
 1304.14040   75.95770    -999.25    -999.25    2.03600    4.49500    4.57690
 1304.26540   75.72720    -999.25    -999.25    2.02920    4.51790    4.51070
 1304.39040   75.68040    -999.25    -999.25    2.03580    4.54420    4.59440
 1304.51540   75.50340    -999.25    -999.25    2.03920    4.56410    4.70750
 1304.64040   75.98080    -999.25    -999.25    2.03880    4.56900    4.61110
 1304.76540   76.44030    -999.25    -999.25    2.04760    4.58290    4.40630
 1304.89040   76.39320    -999.25    -999.25    2.06690    4.61500    4.15190
 1305.01540   75.68790    -999.25    -999.25    2.08760    4.66010    3.88520
 1305.14040   74.96150    -999.25    -999.25    2.09420    4.70440    3.84420
 1305.26540   75.27070    -999.25    -999.25    2.07850    4.74940    3.93920
 1305.39040   74.62150    -999.25    -999.25    2.06450    4.77250    4.06000
 1305.51540   73.29670    -999.25    -999.25    2.06010    4.74870    4.15210
 1305.64040   72.01490    -999.25    -999.25    2.05940    4.68660    4.21530
 1305.76540   71.30600    -999.25    -999.25    2.03800    4.65200    4.32400
 1305.89040   71.56340    -999.25    -999.25    2.00610    4.61770    4.37630
 1306.01540   72.70930    -999.25    -999.25    1.97800    4.58190    4.45810
 1306.14040   74.46350    -999.25    -999.25    1.94820    4.54360    4.58500
 1306.26540   76.21340    -999.25    -999.25    1.92510    4.50370    4.76490
 1306.39040   77.14180    -999.25    -999.25    1.91220    4.46420    4.95740
 1306.51540   76.11290    -999.25    -999.25    1.84750    4.42400    4.89430
 1306.64040   75.72570    -999.25    -999.25    1.83510    4.38160    4.92050
 1306.76540   74.53360    -999.25    -999.25    1.87040    4.36800    4.84430
 1306.89040   72.83900    -999.25    -999.25    1.92420    4.36800    4.69810
 1307.01540   71.30880    -999.25    -999.25    1.97000    4.36800    4.56700
 1307.14040   70.60160    -999.25    -999.25    1.99470    4.36800    4.54590
 1307.26540   68.76530    -999.25    -999.25    2.02420    4.36800    4.49920
 1307.39040   67.83030    -999.25    -999.25    2.05240    4.39770    4.48740
 1307.51540   68.04860    -999.25    -999.25    2.06980    4.43700    4.52820
 1307.64040   69.05520    -999.25    -999.25    2.07660    4.47770    4.55270
 1307.76540   70.60520    -999.25    -999.25    2.07800    4.51800    4.49150
 1307.89040   74.06940    -999.25    -999.25    2.07800    4.55900    4.41270
 1308.01540   75.54080    -999.25    -999.25    2.07120    4.59850    4.27760
 1308.14040   76.38990    -999.25    -999.25    2.06200    4.63440    4.04060
 1308.26540   77.51460    -999.25    -999.25    2.05620    4.65200    3.90540
 1308.39040   78.84550    -999.25    -999.25    2.05680    4.66130    3.96240
 1308.51540   79.49510    -999.25    -999.25    2.06270    4.69610    4.13320
 1308.64040   81.67850    -999.25    -999.25    2.05700    4.73710    4.21600
 1308.76540   83.16970    -999.25    -999.25    2.05050    4.78220    4.33090
 1308.89040   84.31460    -999.25    -999.25    2.05500    4.82810    4.40310
 1309.01540   85.46610    -999.25    -999.25    2.06460    4.87410    4.41190
 1309.14040   86.08690    -999.25    -999.25    2.07060    4.92010    4.39760
 1309.26540   83.16910    -999.25    -999.25    2.07390    4.96690    4.51090
 1309.39040   83.63500    -999.25    -999.25    2.04660    5.01280    4.64440
 1309.51540   82.29030    -999.25    -999.25    2.01310    5.05880    4.80600
