~Version ---------------------------------------------------
VERS. 1.2 : CWLS LOG ASCII STANDARD - VERSION 1.2
WRAP.  NO : One line per depth step
~Well ------------------------------------------------------
STRT  .M         9.2653 : 
STOP  .M      2301.1404 : 
STEP  .M          0.125 : 
NULL  .         -999.25 : 
COMP  .         COMPANY : UNKNOWN
WELL  .            WELL : KAMIAB-1
FLD   .           FIELD : UNKNOWN
LOC   .        LOCATION : UNKNOWN
CNTY  .          COUNTY : UNKNOWN
STAT  .           STATE : PUNJAB
CTRY  .         COUNTRY : PAKISTAN
SRVC  . SERVICE COMPANY : UNKNOWN
DATE  .        LOG DATE : UNKNOWN
UWI   .  UNIQUE WELL ID : KAMIAB-1
XCOORD.       SURFACE X : 0.0
YCOORD.       SURFACE Y : 0.0
LAT   .        LATITUDE : 0.0
LON   .       LONGITUDE : 0.0
ELEV  .M   SURFACE ELEV : 0.000 (type = KB)
~Curve Information -----------------------------------------
DEPTH.M                                             : Measured Depth
GR   .API           UNKNOWN        : GR:UNKNOWN:rC: : v0 (auto-composite)
NPHI .v/v_decimal UNKNOWN        : NPHI:UNKNOWN:rC: : v0 (auto-composite)
PROX .UNKNOWN     UNKNOWN        : PROX:UNKNOWN:rC: : v0 (auto-composite)
RHOB .UNKNOWN     UNKNOWN        : RHOB:UNKNOWN:rC: : v0 (auto-composite)
SN   .UNKNOWN       UNKNOWN        : SN:UNKNOWN:rC: : v0 (auto-composite)
SP   .UNKNOWN       UNKNOWN        : SP:UNKNOWN:rC: : v0 (auto-composite)
~Params ----------------------------------------------------
~Other -----------------------------------------------------
~ASCII -----------------------------------------------------
# ...
 1721.64040   19.79980    -999.25   26.00830    2.35350   22.31670   -3.04880
 1721.76540   20.23430    -999.25   22.91340    2.36640   22.75030   -2.91580
 1721.89040   20.56910    -999.25   21.64080    2.37630   22.99040   -2.78640
 1722.01540   21.28720    -999.25   21.99890    2.38000   23.16070   -2.73590
 1722.14040   22.21390    -999.25   22.73340    2.38010   23.33240   -2.80390
 1722.26540   22.87060    -999.25   29.20690    2.38090   23.50540   -2.96540
 1722.39040   23.86060    -999.25   27.08740    2.39830   23.68000   -3.11350
 1722.51540   24.15570    -999.25   23.49680    2.40630   23.75810   -3.23000
 1722.64040   23.93980    -999.25   23.13640    2.40720   23.79340   -3.28630
 1722.76540   23.18900    -999.25   25.93550    2.40850   23.82790   -3.27110
 1722.89040   21.52440    -999.25   26.70050    2.41810   23.86240   -3.19980
 1723.01540   20.03680    -999.25   27.10090    2.42060   23.89760   -3.16860
 1723.14040   19.04780    -999.25   21.46250    2.42030   23.93230   -3.10450
 1723.26540   18.51810    -999.25   15.65220    2.41160   23.94650   -3.10850
 1723.39040   18.29080    -999.25   15.35810    2.39830   23.94790   -3.17740
 1723.51540   18.17270    -999.25   21.33300    2.38370   23.95050   -3.28170
 1723.64040   18.02920    -999.25   19.93190    2.35750   23.95380   -3.44570
 1723.76540   17.78040    -999.25   20.58550    2.35210   23.61820   -3.50990
 1723.89040   17.99380    -999.25   21.42760    2.36530   23.33890   -3.35200
 1724.01540   17.47680    -999.25   22.62700    2.38120   23.11480   -3.16720
 1724.14040   16.46880    -999.25   23.56780    2.39120   22.91610   -3.04240
 1724.26540   16.58260    -999.25   23.02460    2.39430   22.71690   -2.93450
 1724.39040   18.36400    -999.25   22.18520    2.38450   22.51830   -2.86640
 1724.51540   18.94160    -999.25   21.51100    2.38930   22.34560   -2.76780
 1724.64040   19.16870    -999.25   21.98880    2.39560   22.18000   -2.64560
 1724.76540   19.17990    -999.25   22.52860    2.40840   22.08300   -2.46910
 1724.89040   19.17030    -999.25   22.28930    2.42840   22.04890   -2.23820
 1725.01540   19.91780    -999.25   22.45510    2.43580   21.86840   -2.04380
 1725.14040   20.52710    -999.25   21.66840    2.44320   21.68880   -2.06030
 1725.26540   20.85720    -999.25   22.20410    2.44500   21.50910   -2.10300
 1725.39040   21.66200    -999.25   22.31240    2.45150   21.33030   -2.19890
 1725.51540   22.09290    -999.25   21.75640    2.46390   21.18310   -2.30890
 1725.64040   20.58560    -999.25   21.37790    2.47390   21.11100   -2.35800
 1725.76540   18.83630    -999.25   20.44500    2.46150   21.11100   -2.39000
 1725.89040   18.90880    -999.25   21.85680    2.45000   21.24800   -2.41480
 1726.01540   18.93260    -999.25   21.31430    2.44170   21.29610   -2.38540
 1726.14040   19.23020    -999.25   20.59650    2.43980   21.35860   -2.30870
 1726.26540   20.13030    -999.25   21.18220    2.43910   21.53110   -2.22530
 1726.39040   21.16900    -999.25   21.66000    2.42100   21.76800   -2.20800
 1726.51540   22.13090    -999.25   18.06510    2.40460   21.84490   -2.29550
 1726.64040   22.37880    -999.25   16.58710    2.39530   21.92650   -2.58950
 1726.76540   22.51900    -999.25   17.28590    2.39250   22.00980   -2.78900
 1726.89040   22.90770    -999.25   19.00480    2.39410   22.07000   -2.78140
 1727.01540   23.41770    -999.25   20.10820    2.39510   22.10280   -2.61430
 1727.14040   22.37160    -999.25   19.81140    2.37950   22.26680   -2.50940
 1727.26540   21.44370    -999.25   19.38940    2.35290   22.43230   -2.42290
 1727.39040   21.48610    -999.25   20.06210    2.32780   22.71340   -2.42230
 1727.51540   22.13830    -999.25   20.41960    2.31580   22.81510   -2.41410
 1727.64040   22.97580    -999.25   21.30670    2.31800   22.64740   -2.33940
 1727.76540   23.77440    -999.25   26.51840    2.32210   22.47210   -2.22420
 1727.89040   23.58910    -999.25   19.86120    2.32620   21.95470   -2.03320
 1728.01540   22.79840    -999.25   20.10130    2.33630   21.29100   -2.01320
 1728.14040   21.90410    -999.25   22.14610    2.34530   20.69570   -1.97780
 1728.26540   21.03560    -999.25   21.65490    2.35120   20.30990   -1.97180
 1728.39040   20.10350    -999.25   17.11980    2.35480   20.16000   -2.09470
 1728.51540   18.85080    -999.25   15.46370    2.36060   20.01160   -2.26850
 1728.64040   18.23310    -999.25   14.92830    2.35490   19.86470   -2.38380
 1728.76540   18.30940    -999.25   20.44460    2.34370   19.82260   -2.47590
 1728.89040   18.28440    -999.25   30.78720    2.33420   19.81700   -2.46960
 1729.01540   18.04750    -999.25   37.80630    2.33400   19.85400   -2.40310
 1729.14040   18.25550    -999.25   29.26170    2.35010   20.03760   -2.42980
 1729.26540   18.32450    -999.25   21.60880    2.39110   20.47650   -2.46510
 1729.39040   18.83340    -999.25   18.78330    2.42600   21.34460   -2.47780
 1729.51540   18.87170    -999.25   20.69570    2.44400   22.09300   -2.59020
 1729.64040   19.09050    -999.25   32.02970    2.44510   22.71250   -2.76200
 1729.76540   20.00080    -999.25   48.45560    2.43600   23.33270   -2.88380
 1729.89040   20.31890    -999.25   37.86720    2.43030   23.95250   -2.81410
 1730.01540   21.61900    -999.25   34.29200    2.43860   24.57280   -2.67380
 1730.14040   21.16820    -999.25   32.56460    2.43440   25.06290   -2.60340
 1730.26540   21.64080    -999.25   31.27370    2.41260   25.47180   -2.54590
 1730.39040   23.35650    -999.25   30.78400    2.38900   25.73600   -2.48500
 1730.51540   24.43360    -999.25   32.36290    2.38970   25.74910   -2.43550
 1730.64040   24.02170    -999.25   33.36560    2.39870   25.91570   -2.27720
 1730.76540   23.31820    -999.25   28.39010    2.41270   26.11100   -2.08080
 1730.89040   22.22950    -999.25   24.88040    2.42220   26.31800   -1.91240
 1731.01540   21.43610    -999.25   22.32530    2.42810   26.27720   -1.79320
 1731.14040   21.26080    -999.25   18.99700    2.42970   25.89220   -1.75730
 1731.26540   20.89820    -999.25   14.86900    2.41820   25.51150   -1.88780
 1731.39040   21.18620    -999.25   18.24680    2.41320   24.75790   -2.06330
 1731.51540   21.12300    -999.25   21.84840    2.37070   24.07130   -2.13070
 1731.64040   21.20120    -999.25   20.04630    2.32990   23.40750   -2.18000
 1731.76540   20.95250    -999.25   17.55550    2.31560   22.72570   -2.19930
 1731.89040   19.68900    -999.25   23.02530    2.33560   22.01500   -2.14130
 1732.01540   19.27470    -999.25   28.35460    2.37910   21.37420   -2.18150
 1732.14040   18.74420    -999.25   22.41280    2.37310   21.16310   -2.20050
 1732.26540   18.97880    -999.25   18.14780    2.36410   21.00090   -2.29150
 1732.39040   19.60650    -999.25   18.93970    2.35960   21.08260   -2.44480
 1732.51540   20.03110    -999.25   24.01560    2.35660   21.43300   -2.63950
 1732.64040   19.75500    -999.25   28.95500    2.34600   21.66600   -2.86600
 1732.76540   20.09460    -999.25   27.68430    2.37500   22.18040   -2.77740
 1732.89040   21.39890    -999.25   25.58640    2.40890   22.28250   -2.64290
 1733.01540   22.77500    -999.25   26.51540    2.42730   22.56740   -2.44780
 1733.14040   23.70850    -999.25   26.68560    2.42780   22.94560   -2.28410
 1733.26540   23.79620    -999.25   21.55090    2.41760   23.09670   -2.25100
 1733.39040   22.02860    -999.25   20.08820    2.39960   23.25900   -2.25840
 1733.51540   22.35060    -999.25   20.95160    2.37780   23.42070   -2.20650
 1733.64040   21.68050    -999.25   16.82350    2.33280   23.49850   -2.09660
 1733.76540   21.23910    -999.25   13.02770    2.30520   23.31740   -1.95360
 1733.89040   21.74790    -999.25   14.06620    2.30470   22.91470   -1.81440
 1734.01540   22.60120    -999.25   20.36630    2.29540   22.57550   -1.72640
 1734.14040   23.05700    -999.25   16.47600    2.28070   22.16480   -1.84370
 1734.26540   22.11780    -999.25   15.57810    2.28670   21.82490   -1.98850
 1734.39040   21.35320    -999.25   15.54940    2.32050   21.23070   -2.12270
