~Version ---------------------------------------------------
VERS. 1.2 : CWLS LOG ASCII STANDARD - VERSION 1.2
WRAP.  NO : One line per depth step
~Well ------------------------------------------------------
STRT  .M         9.2653 : 
STOP  .M      2301.1404 : 
STEP  .M          0.125 : 
NULL  .         -999.25 : 
COMP  .         COMPANY : UNKNOWN
WELL  .            WELL : KAMIAB-1
FLD   .           FIELD : UNKNOWN
LOC   .        LOCATION : UNKNOWN
CNTY  .          COUNTY : UNKNOWN
STAT  .           STATE : PUNJAB
CTRY  .         COUNTRY : PAKISTAN
SRVC  . SERVICE COMPANY : UNKNOWN
DATE  .        LOG DATE : UNKNOWN
UWI   .  UNIQUE WELL ID : KAMIAB-1
XCOORD.       SURFACE X : 0.0
YCOORD.       SURFACE Y : 0.0
LAT   .        LATITUDE : 0.0
LON   .       LONGITUDE : 0.0
ELEV  .M   SURFACE ELEV : 0.000 (type = KB)
~Curve Information -----------------------------------------
DEPTH.M                                             : Measured Depth
GR   .API           UNKNOWN        : GR:UNKNOWN:rC: : v0 (auto-composite)
NPHI .v/v_decimal UNKNOWN        : NPHI:UNKNOWN:rC: : v0 (auto-composite)
PROX .UNKNOWN     UNKNOWN        : PROX:UNKNOWN:rC: : v0 (auto-composite)
RHOB .UNKNOWN     UNKNOWN        : RHOB:UNKNOWN:rC: : v0 (auto-composite)
SN   .UNKNOWN       UNKNOWN        : SN:UNKNOWN:rC: : v0 (auto-composite)
SP   .UNKNOWN       UNKNOWN        : SP:UNKNOWN:rC: : v0 (auto-composite)
~Params ----------------------------------------------------
~Other -----------------------------------------------------
~ASCII -----------------------------------------------------
# ...
 2146.51540   19.43210   46.77370    3.93510    1.99860    2.34900   -7.07130
 2146.64040   19.76980   43.98440    3.92530    1.99750    2.59820   -7.19370
 2146.76540   19.94520   43.09830    4.09010    2.02680    2.81200   -7.29120
 2146.89040   20.02150   45.09640    4.58980    2.07590    2.77710   -7.32920
 2147.01540   20.30300   50.19200    3.62700    2.05700    2.61700   -7.32100
 2147.14040   19.50290   48.75070    3.82110    2.02100    2.64400   -7.29640
 2147.26540   18.74890   44.53270    4.03720    2.02510    2.69030   -7.34720
 2147.39040   18.01390   40.73970    4.26830    2.04580    2.67990   -7.37490
 2147.51540   17.29040   38.68830    4.37040    2.06790    2.63430   -7.35210
 2147.64040   16.61790   38.30650    4.23000    2.08460    2.61940   -7.31410
 2147.76540   16.21730   38.97910    4.23000    2.09770    2.63910   -7.38050
 2147.89040   15.86570   38.87110    4.06420    2.09090    2.64100   -7.32260
 2148.01540   15.45940   39.27080    4.11030    2.08020    2.62750   -7.34880
 2148.14040   15.13970   38.50320    4.29600    2.07250    2.64440   -7.37790
 2148.26540   14.99860   36.56940    4.39470    2.08130    2.70370   -7.36780
 2148.39040   15.00100   36.20490    4.10270    2.12650    2.76000   -7.38530
 2148.51540   15.00020   37.60150    3.57020    2.14700    2.67960   -7.31800
 2148.64040   15.00260   36.43580    3.92080    2.10670    2.63290   -7.29380
 2148.76540   14.99680   35.09260    4.52850    2.06810    2.58900   -7.21860
 2148.89040   15.10040   34.89170    4.77860    2.07790    2.56230   -7.14760
 2149.01540   15.38470   36.14420    4.36470    2.13980    2.57000   -7.15990
 2149.14040   15.56900   37.53850    3.96240    2.13810    2.57000   -7.18610
 2149.26540   15.58430   39.02400    4.30840    2.12880    2.58750   -7.09420
 2149.39040   15.57450   40.48210    4.69490    2.12250    2.57960   -7.04280
 2149.51540   15.42330   40.90810    4.40580    2.11480    2.57930   -7.02500
 2149.64040   15.17770   39.84480    3.78760    2.10900    2.59300   -7.02090
 2149.76540   15.05410   37.64440    4.10670    2.11530    2.59300   -7.02060
 2149.89040   14.90310   35.93360    3.92860    2.10130    2.59300   -7.08870
 2150.01540   14.76790   36.08540    4.12270    2.09760    2.54580   -7.04660
 2150.14040   14.69780   35.66190    3.92230    2.10460    2.50130   -7.03920
 2150.26540   14.78320   34.54600    3.73630    2.11300    2.46470   -7.06870
 2150.39040   15.04660   33.61330    3.94970    2.12100    2.42260   -7.09360
 2150.51540   15.31250   34.25330    3.83400    2.15550    2.35210   -7.08540
 2150.64040   15.29020   35.53380    3.64450    2.16880    2.23600   -7.06150
 2150.76540   15.46690   36.05440    4.00210    2.17380    2.18140   -6.90910
 2150.89040   15.58460   35.99490    4.04180    2.17800    2.16600   -6.75440
 2151.01540   15.57480   35.47030    3.65530    2.18420    2.17070   -6.71120
 2151.14040   15.55500   34.37700    3.41740    2.19000    2.18760   -6.84290
 2151.26540   15.50500   31.75460    3.57240    2.17770    2.22040   -7.06690
 2151.39040   15.45560   31.02050    3.66390    2.17110    2.21090   -7.22090
 2151.51540   15.40430   31.32700    3.63290    2.16950    2.24770   -7.33260
 2151.64040   15.35560   32.48310    3.53360    2.16410    2.27250   -7.41790
 2151.76540   15.26730   33.99910    3.41120    2.15270    2.24970   -7.48400
 2151.89040   15.00220   34.57680    3.22990    2.15100    2.26280   -7.52340
 2152.01540   14.99720   35.20200    3.41840    2.14940    2.21700   -7.40850
 2152.14040   15.18470   35.53300    3.67120    2.14460    2.24370   -7.29370
 2152.26540   15.29290   34.90640    3.87280    2.14960    2.29380   -7.21420
 2152.39040   15.28950   34.73630    3.91410    2.16090    2.32800   -7.15810
 2152.51540   15.29420   36.64880    3.84850    2.16540    2.32620   -7.09130
 2152.64040   15.32370   35.63790    4.66570    2.15960    2.30890   -7.02900
 2152.76540   15.44220   35.14020    4.14690    2.14590    2.27710   -6.95130
 2152.89040   15.56850   34.96460    3.60300    2.12890    2.25450   -6.87010
 2153.01540   15.69460   35.16330    3.53320    2.12050    2.26790   -6.83090
 2153.14040   15.80530   35.99850    3.83840    2.12340    2.31490   -6.85360
 2153.26540   15.85800   37.93400    3.75400    2.12500    2.34900   -6.90800
 2153.39040   15.60740   38.41120    4.18050    2.11420    2.38390   -6.98680
 2153.51540   15.58010   40.17000    3.98250    2.09900    2.60040   -7.07580
 2153.64040   15.60050   42.61720    3.85340    2.10090    2.69000   -7.15400
 2153.76540   16.27630   45.39330    4.25740    2.10490    2.69240   -7.21710
 2153.89040   18.05450   47.47990    5.12420    2.08900    2.75660   -7.27180
 2154.01540   19.11460   44.32420    4.70900    2.08160    2.71640   -7.33010
 2154.14040   19.55190   42.49530    4.52000    2.08400    2.80690   -7.38160
 2154.26540   19.82630   42.44730    4.60890    2.09410    2.91280   -7.42610
 2154.39040   19.94950   43.37090    4.79920    2.10490    2.96900   -7.42300
 2154.51540   19.89210   44.12410    4.86820    2.10090    2.98020   -7.37390
 2154.64040   19.64990   43.74020    4.64240    2.06210    3.02290   -7.33360
 2154.76540   19.46690   47.02630    4.96410    2.04000    3.04590   -7.27040
 2154.89040   19.22980   49.15010    3.93590    2.03260    3.06810   -7.16700
 2155.01540   19.05430   50.15860    4.00730    2.01870    3.03670   -7.05020
 2155.14040   18.90510   50.28060    4.56190    2.00790    2.99500   -6.95480
 2155.26540   18.71200   49.91900    4.39750    2.01120    3.00230   -6.92070
 2155.39040   18.48300   49.67780    4.30810    2.00630    3.04740   -6.99950
 2155.51540   19.75210   52.07030    4.63960    1.99980    3.00740   -7.06360
 2155.64040   23.17420   53.05230    4.80090    1.99860    3.01100   -7.12190
 2155.76540   26.56400   52.10390    4.26190    1.99900    2.98890   -7.16030
 2155.89040   24.91880   50.01440    3.49530    1.99900    2.95510   -7.20720
 2156.01540   14.11700   48.29470    3.70610    1.99890    2.99680   -7.31210
 2156.14040   24.01970   45.67070    3.90380    1.99810    2.97790   -7.29900
 2156.26540   23.70100   44.20940    4.03460    2.02020    2.76330   -7.32130
 2156.39040   22.84360   42.20170    4.21630    2.04030    2.54920   -7.37160
 2156.51540   22.22710   39.54370    4.26970    2.05840    2.44240   -7.38720
 2156.64040   21.19370   36.51210    4.07860    2.09040    2.46040   -7.31580
 2156.76540   21.71070   33.12250    3.87020    2.17160    2.47850   -7.16640
 2156.89040   21.31030   30.90760    3.52300    2.21770    2.40900   -7.11590
 2157.01540   20.72260   29.85640    3.10900    2.23390    2.35220   -7.05970
 2157.14040   20.48820   29.66810    3.13150    2.23350    2.28310   -6.99280
 2157.26540   20.76150   30.61540    3.79150    2.21590    2.19020   -6.91540
 2157.39040   21.40610   33.15020    4.76690    2.17750    2.09340   -6.83520
 2157.51540   22.47770   35.99000    3.81260    2.17260    2.14010   -6.80480
 2157.64040   23.40300   37.49600    3.79040    2.16480    2.23200   -6.87550
 2157.76540   23.72990   38.60080    3.41320    2.14970    2.28800   -6.95700
 2157.89040   23.63450   39.24590    3.46030    2.13790    2.31810   -7.00270
 2158.01540   23.31900   39.15740    4.34760    2.12940    2.35130   -7.00120
 2158.14040   22.75400   38.04800    5.06800    2.09900    2.41300   -6.98800
 2158.26540   22.44750   39.35400    4.06030    2.10960    2.48570   -7.00520
 2158.39040   21.65610   40.22420    3.58000    2.12030    2.53070   -7.08930
 2158.51540   20.58360   41.82400    4.10050    2.10390    2.55750   -7.15470
 2158.64040   19.61940   44.39010    4.77710    2.07340    2.57000   -7.19470
 2158.76540   19.07800   46.78130    4.43860    2.06130    2.57000   -7.24260
 2158.89040   18.48980   43.80190    4.01260    2.08010    2.57000   -7.28120
 2159.01540   17.61500   42.94050    4.07710    2.07390    2.57000   -7.27240
 2159.14040   16.99340   43.69240    3.52690    2.06760    2.57000   -7.19980
 2159.26540   16.85170   43.93070    3.30660    2.07450    2.57040   -7.11260
