~Version ---------------------------------------------------
VERS. 1.2 : CWLS LOG ASCII STANDARD - VERSION 1.2
WRAP.  NO : One line per depth step
~Well ------------------------------------------------------
STRT  .M         9.2653 : 
STOP  .M      2301.1404 : 
STEP  .M          0.125 : 
NULL  .         -999.25 : 
COMP  .         COMPANY : UNKNOWN
WELL  .            WELL : KAMIAB-1
FLD   .           FIELD : UNKNOWN
LOC   .        LOCATION : UNKNOWN
CNTY  .          COUNTY : UNKNOWN
STAT  .           STATE : PUNJAB
CTRY  .         COUNTRY : PAKISTAN
SRVC  . SERVICE COMPANY : UNKNOWN
DATE  .        LOG DATE : UNKNOWN
UWI   .  UNIQUE WELL ID : KAMIAB-1
XCOORD.       SURFACE X : 0.0
YCOORD.       SURFACE Y : 0.0
LAT   .        LATITUDE : 0.0
LON   .       LONGITUDE : 0.0
ELEV  .M   SURFACE ELEV : 0.000 (type = KB)
~Curve Information -----------------------------------------
DEPTH.M                                             : Measured Depth
GR   .API           UNKNOWN        : GR:UNKNOWN:rC: : v0 (auto-composite)
NPHI .v/v_decimal UNKNOWN        : NPHI:UNKNOWN:rC: : v0 (auto-composite)
PROX .UNKNOWN     UNKNOWN        : PROX:UNKNOWN:rC: : v0 (auto-composite)
RHOB .UNKNOWN     UNKNOWN        : RHOB:UNKNOWN:rC: : v0 (auto-composite)
SN   .UNKNOWN       UNKNOWN        : SN:UNKNOWN:rC: : v0 (auto-composite)
SP   .UNKNOWN       UNKNOWN        : SP:UNKNOWN:rC: : v0 (auto-composite)
~Params ----------------------------------------------------
~Other -----------------------------------------------------
~ASCII -----------------------------------------------------
# ...
 1155.14040   63.11600    -999.25    -999.25    2.17030    5.12650    3.27600
 1155.26540   63.16450    -999.25    -999.25    2.16410    5.00210    3.38290
 1155.39040   62.57350    -999.25    -999.25    2.16370    4.94000    3.46300
 1155.51540   60.68460    -999.25    -999.25    2.16790    4.90420    3.59970
 1155.64040   58.54310    -999.25    -999.25    2.16710    4.89760    3.59720
 1155.76540   56.92660    -999.25    -999.25    2.17000    4.89180    3.64180
 1155.89040   57.84070    -999.25    -999.25    2.17270    4.88550    3.86570
 1156.01540   59.94690    -999.25    -999.25    2.17480    4.87890    4.15320
 1156.14040   62.45660    -999.25    -999.25    2.17500    4.87190    4.36010
 1156.26540   65.76330    -999.25    -999.25    2.17090    4.86530    4.37780
 1156.39040   65.62460    -999.25    -999.25    2.16680    4.90470    4.43030
 1156.51540   64.47840    -999.25    -999.25    2.16270    4.91200    4.20810
 1156.64040   64.28930    -999.25    -999.25    2.16830    4.91000    4.00700
 1156.76540   64.80550    -999.25    -999.25    2.17540    4.92440    3.89170
 1156.89040   64.87890    -999.25    -999.25    2.17390    4.96680    3.84130
 1157.01540   63.46920    -999.25    -999.25    2.17310    5.00370    3.88150
 1157.14040   62.70900    -999.25    -999.25    2.17380    5.03980    3.76860
 1157.26540   62.96560    -999.25    -999.25    2.17930    5.07590    3.65800
 1157.39040   63.82080    -999.25    -999.25    2.18710    5.11200    3.56900
 1157.51540   64.89520    -999.25    -999.25    2.19640    5.14830    3.47220
 1157.64040   65.86700    -999.25    -999.25    2.20880    5.18530    3.30070
 1157.76540   65.17990    -999.25    -999.25    2.22110    5.22300    2.95230
 1157.89040   63.56800    -999.25    -999.25    2.22160    5.26210    2.58980
 1158.01540   62.35750    -999.25    -999.25    2.22050    5.27700    2.44590
 1158.14040   61.97790    -999.25    -999.25    2.22000    5.27700    2.47800
 1158.26540   62.32140    -999.25    -999.25    2.21940    5.27910    2.57000
 1158.39040   62.70340    -999.25    -999.25    2.21610    5.29060    2.65110
 1158.51540   66.58120    -999.25    -999.25    2.21200    5.34160    2.65870
 1158.64040   69.00790    -999.25    -999.25    2.21160    5.39350    2.67100
 1158.76540   70.49160    -999.25    -999.25    2.21760    5.44570    2.68530
 1158.89040   71.42930    -999.25    -999.25    2.22950    5.49790    2.73480
 1159.01540   71.91010    -999.25    -999.25    2.24280    5.54680    2.86080
 1159.14040   71.93390    -999.25    -999.25    2.24030    5.56730    2.94940
 1159.26540   71.12790    -999.25    -999.25    2.22000    5.57000    3.09640
 1159.39040   69.31250    -999.25    -999.25    2.21150    5.57000    3.01780
 1159.51540   67.98190    -999.25    -999.25    2.21420    5.55230    2.83920
 1159.64040   67.81600    -999.25    -999.25    2.21580    5.52290    2.66480
 1159.76540   67.24400    -999.25    -999.25    2.19600    5.53700    2.37300
 1159.89040   66.97710    -999.25    -999.25    2.18870    5.56470    2.08650
 1160.01540   67.47950    -999.25    -999.25    2.18070    5.59250    1.95250
 1160.14040   67.78590    -999.25    -999.25    2.18740    5.62040    1.69190
 1160.26540   67.31370    -999.25    -999.25    2.20030    5.64780    1.42130
 1160.39040   65.86620    -999.25    -999.25    2.20040    5.67080    1.39690
 1160.51540   63.61310    -999.25    -999.25    2.19550    5.66920    1.29190
 1160.64040   62.52090    -999.25    -999.25    2.18470    5.70940    1.16700
 1160.76540   66.23660    -999.25    -999.25    2.17710    5.72340    1.01380
 1160.89040   70.01740    -999.25    -999.25    2.17290    5.72260    0.78880
 1161.01540   70.94190    -999.25    -999.25    2.16880    5.72360    0.51970
 1161.14040   70.93990    -999.25    -999.25    2.15990    5.73020    0.33960
 1161.26540   71.71610    -999.25    -999.25    2.15670    5.73840    0.42250
 1161.39040   73.17750    -999.25    -999.25    2.16260    5.74660    0.53940
 1161.51540   74.16690    -999.25    -999.25    2.16310    5.75430    0.62390
 1161.64040   73.36100    -999.25    -999.25    2.16000    5.76350    0.71090
 1161.76540   70.63350    -999.25    -999.25    2.16070    5.77460    0.83400
 1161.89040   70.46860    -999.25    -999.25    2.16560    5.77870    0.83400
 1162.01540   70.38710    -999.25    -999.25    2.17280    5.73210    0.88470
 1162.14040   68.91160    -999.25    -999.25    2.17900    5.72050    0.97780
 1162.26540   66.20310    -999.25    -999.25    2.17480    5.72460    1.15530
 1162.39040   63.63440    -999.25    -999.25    2.16310    5.71480    1.39470
 1162.51540   63.44130    -999.25    -999.25    2.16000    5.67220    1.58790
 1162.64040   65.21030    -999.25    -999.25    2.15910    5.69760    1.43610
 1162.76540   66.00020    -999.25    -999.25    2.16580    5.73320    1.35770
 1162.89040   66.26590    -999.25    -999.25    2.17400    5.77090    1.30610
 1163.01540   66.00100    -999.25    -999.25    2.17930    5.80840    1.26140
 1163.14040   65.08420    -999.25    -999.25    2.18140    5.84460    1.22980
 1163.26540   63.46370    -999.25    -999.25    2.18960    5.87740    1.26430
 1163.39040   62.74870    -999.25    -999.25    2.19310    5.83530    1.23870
 1163.51540   60.97160    -999.25    -999.25    2.19340    5.82720    1.20100
 1163.64040   59.88160    -999.25    -999.25    2.18800    5.80520    1.25870
 1163.76540   60.11350    -999.25    -999.25    2.18080    5.74700    1.36360
 1163.89040   61.23010    -999.25    -999.25    2.18000    5.65340    1.36210
 1164.01540   64.96860    -999.25    -999.25    2.18000    5.41480    1.44400
 1164.14040   67.41180    -999.25    -999.25    2.17440    5.16340    1.41320
 1164.26540   68.76900    -999.25    -999.25    2.16840    4.89650    1.49080
 1164.39040   70.64680    -999.25    -999.25    2.15410    4.70740    1.89750
 1164.51540   73.37820    -999.25    -999.25    2.13090    4.63200    2.63520
 1164.64040   73.76030    -999.25    -999.25    2.12020    4.53030    3.25580
 1164.76540   74.99490    -999.25    -999.25    2.10320    4.52800    3.56350
 1164.89040   76.90290    -999.25    -999.25    2.09900    4.52800    3.76170
 1165.01540   79.22830    -999.25    -999.25    2.10080    4.54610    3.82210
 1165.14040   80.04760    -999.25    -999.25    2.09770    4.58970    3.80700
 1165.26540   77.12090    -999.25    -999.25    2.08130    4.65510    3.83730
 1165.39040   72.72240    -999.25    -999.25    2.06400    4.72470    3.99890
 1165.51540   68.85960    -999.25    -999.25    2.05120    4.77210    4.21760
 1165.64040   66.33730    -999.25    -999.25    2.06660    4.82990    4.34450
 1165.76540   64.43960    -999.25    -999.25    2.09210    4.86130    4.39460
 1165.89040   62.70170    -999.25    -999.25    2.11110    4.84880    4.39590
 1166.01540   61.61300    -999.25    -999.25    2.12500    4.83000    4.34200
 1166.14040   62.84110    -999.25    -999.25    2.13160    4.81190    4.12110
 1166.26540   64.31930    -999.25    -999.25    2.14330    4.79380    4.06560
 1166.39040   65.13450    -999.25    -999.25    2.15600    4.76280    4.04750
 1166.51540   65.35470    -999.25    -999.25    2.16860    4.73600    4.04820
 1166.64040   65.57960    -999.25    -999.25    2.18050    4.73600    4.09490
 1166.76540   66.26640    -999.25    -999.25    2.18460    4.73600    4.14080
 1166.89040   65.23130    -999.25    -999.25    2.16780    4.73600    4.28220
 1167.01540   65.39390    -999.25    -999.25    2.15630    4.68850    4.31260
 1167.14040   66.21430    -999.25    -999.25    2.15280    4.63580    4.27110
 1167.26540   67.14840    -999.25    -999.25    2.15610    4.60260    4.18660
 1167.39040   68.27950    -999.25    -999.25    2.16360    4.57300    4.03310
 1167.51540   69.42660    -999.25    -999.25    2.15050    4.54180    3.84770
 1167.64040   70.56960    -999.25    -999.25    2.13600    4.51000    3.87970
 1167.76540   71.73410    -999.25    -999.25    2.13050    4.47360    3.97680
 1167.89040   72.17560    -999.25    -999.25    2.13280    4.46010    4.09010
