~Version ---------------------------------------------------
VERS. 1.2 : CWLS LOG ASCII STANDARD - VERSION 1.2
WRAP.  NO : One line per depth step
~Well ------------------------------------------------------
STRT  .M         9.2653 : 
STOP  .M      2301.1404 : 
STEP  .M          0.125 : 
NULL  .         -999.25 : 
COMP  .         COMPANY : UNKNOWN
WELL  .            WELL : KAMIAB-1
FLD   .           FIELD : UNKNOWN
LOC   .        LOCATION : UNKNOWN
CNTY  .          COUNTY : UNKNOWN
STAT  .           STATE : PUNJAB
CTRY  .         COUNTRY : PAKISTAN
SRVC  . SERVICE COMPANY : UNKNOWN
DATE  .        LOG DATE : UNKNOWN
UWI   .  UNIQUE WELL ID : KAMIAB-1
XCOORD.       SURFACE X : 0.0
YCOORD.       SURFACE Y : 0.0
LAT   .        LATITUDE : 0.0
LON   .       LONGITUDE : 0.0
ELEV  .M   SURFACE ELEV : 0.000 (type = KB)
~Curve Information -----------------------------------------
DEPTH.M                                             : Measured Depth
GR   .API           UNKNOWN        : GR:UNKNOWN:rC: : v0 (auto-composite)
NPHI .v/v_decimal UNKNOWN        : NPHI:UNKNOWN:rC: : v0 (auto-composite)
PROX .UNKNOWN     UNKNOWN        : PROX:UNKNOWN:rC: : v0 (auto-composite)
RHOB .UNKNOWN     UNKNOWN        : RHOB:UNKNOWN:rC: : v0 (auto-composite)
SN   .UNKNOWN       UNKNOWN        : SN:UNKNOWN:rC: : v0 (auto-composite)
SP   .UNKNOWN       UNKNOWN        : SP:UNKNOWN:rC: : v0 (auto-composite)
~Params ----------------------------------------------------
~Other -----------------------------------------------------
~ASCII -----------------------------------------------------
# ...
  447.01530   60.46760    -999.25    -999.25    2.14470   17.62400   -5.69150
  447.14030   62.51970    -999.25    -999.25    2.14300   17.64860   -5.82270
  447.26530   65.53180    -999.25    -999.25    2.13980   17.67240   -5.75490
  447.39030   69.69490    -999.25    -999.25    2.13400   17.69620   -5.71980
  447.51530   74.33910    -999.25    -999.25    2.12610   17.71990   -6.03890
  447.64030   79.44670    -999.25    -999.25    2.11840   17.74400   -6.66900
  447.76530   85.15060    -999.25    -999.25    2.11430   17.76840   -7.27220
  447.89030   89.67310    -999.25    -999.25    2.11760   17.79140   -7.22710
  448.01530   88.73500    -999.25    -999.25    2.12020   17.79620   -6.67580
  448.14030   85.51180    -999.25    -999.25    2.11990   17.70340   -6.66540
  448.26530   81.09010    -999.25    -999.25    2.11860   17.63040   -6.87270
  448.39030   75.88660    -999.25    -999.25    2.11930   17.64010   -6.97630
  448.51530   69.80500    -999.25    -999.25    2.12500   17.64900   -7.07700
  448.64030   67.92230    -999.25    -999.25    2.13160   17.66310   -7.18470
  448.76530   68.46710    -999.25    -999.25    2.13490   17.67830   -7.21020
  448.89030   70.27100    -999.25    -999.25    2.13830   17.69340   -7.02220
  449.01530   72.46590    -999.25    -999.25    2.13980   17.70820   -6.99400
  449.14030   74.06560    -999.25    -999.25    2.13610   17.72300   -7.43300
  449.26530   72.68850    -999.25    -999.25    2.12960   17.73770   -7.27560
  449.39030   69.96510    -999.25    -999.25    2.11550   17.75250   -8.26120
  449.51530   68.72520    -999.25    -999.25    2.10300   17.76730   -8.64690
  449.64030   69.02980    -999.25    -999.25    2.09660   17.78160   -8.38300
  449.76530   70.71220    -999.25    -999.25    2.09770   17.79200   -7.81360
  449.89030   73.48620    -999.25    -999.25    2.10450   17.79200   -7.44710
  450.01530   70.32780    -999.25    -999.25    2.11850   17.79200   -7.23380
  450.14030   67.57260    -999.25    -999.25    2.12700   17.79200   -6.71730
  450.26530   64.56910    -999.25    -999.25    2.13150   17.79450   -7.36400
  450.39030   62.23510    -999.25    -999.25    2.13360   17.80140   -8.09960
  450.51530   61.67910    -999.25    -999.25    2.13410   17.81300   -7.69400
  450.64030   62.76500    -999.25    -999.25    2.12830   17.82530   -7.61280
  450.76530   63.70190    -999.25    -999.25    2.13110   17.83680   -7.85650
  450.89030   64.85570    -999.25    -999.25    2.13080   17.84890   -7.43690
  451.01530   65.54970    -999.25    -999.25    2.12460   17.86080   -7.05740
  451.14030   65.43220    -999.25    -999.25    2.11750   17.87250   -7.17080
  451.26530   64.68900    -999.25    -999.25    2.11830   17.88470   -7.74930
  451.39030   64.76610    -999.25    -999.25    2.10770   17.89620   -8.03390
  451.51530   65.91610    -999.25    -999.25    2.09910   17.90840   -8.55900
  451.64030   67.73770    -999.25    -999.25    2.09450   17.92020   -8.49020
  451.76530   69.09440    -999.25    -999.25    2.08970   17.93200   -8.10490
  451.89030   68.81630    -999.25    -999.25    2.08070   17.94370   -7.72930
  452.01530   66.18680    -999.25    -999.25    2.06840   17.95270   -6.98380
  452.14030   62.66960    -999.25    -999.25    2.07510   17.95300   -8.34750
  452.26530   60.48780    -999.25    -999.25    2.07950   17.96840   -9.33370
  452.39030   60.12250    -999.25    -999.25    2.08320   17.99020   -9.63050
  452.51530   60.87200    -999.25    -999.25    2.08930   18.01310   -9.13090
  452.64030   61.39320    -999.25    -999.25    2.09900   18.03610   -8.07360
  452.76530   61.65810    -999.25    -999.25    2.09900   18.05910   -8.47380
  452.89030   61.88510    -999.25    -999.25    2.09610   18.08200   -8.10220
  453.01530   62.13180    -999.25    -999.25    2.09390   18.10500   -8.18570
  453.14030   62.32170    -999.25    -999.25    2.09120   18.12800   -8.66730
  453.26530   62.41310    -999.25    -999.25    2.08710   18.15090   -9.19840
  453.39030   62.47900    -999.25    -999.25    2.08300   18.17400   -9.45300
  453.51530   62.59900    -999.25    -999.25    2.08710   18.19690   -8.19560
  453.64030   63.68670    -999.25    -999.25    2.08860   18.21980   -8.18740
  453.76530   64.27970    -999.25    -999.25    2.09270   18.24280   -8.03110
  453.89030   63.58320    -999.25    -999.25    2.09950   18.26740   -7.44490
  454.01530   61.61520    -999.25    -999.25    2.10640   18.29730   -7.03070
  454.14030   60.02200    -999.25    -999.25    2.10970   18.34250   -8.25140
  454.26530   61.57370    -999.25    -999.25    2.11370   18.38680   -8.54300
  454.39030   63.48210    -999.25    -999.25    2.11500   18.43110   -8.23590
  454.51530   65.43390    -999.25    -999.25    2.11390   18.47540   -7.58500
  454.64030   66.77720    -999.25    -999.25    2.11240   18.51990   -7.18820
  454.76530   66.05050    -999.25    -999.25    2.11390   18.56490   -7.96600
  454.89030   64.78740    -999.25    -999.25    2.11150   18.60340   -7.47960
  455.01530   63.87940    -999.25    -999.25    2.11360   18.61100   -7.76880
  455.14030   63.07080    -999.25    -999.25    2.11450   18.52330   -7.59420
  455.26530   62.45550    -999.25    -999.25    2.11310   18.43400   -7.61200
  455.39030   62.14620    -999.25    -999.25    2.11440   18.44760   -8.51460
  455.51530   61.75010    -999.25    -999.25    2.13730   18.44520   -7.90190
  455.64030   61.71570    -999.25    -999.25    2.14280   18.44420   -7.62670
  455.76530   61.83000    -999.25    -999.25    2.13820   18.37840   -7.45710
  455.89030   62.62310    -999.25    -999.25    2.13680   18.27650   -7.15760
  456.01530   63.96970    -999.25    -999.25    2.14170   18.16500   -6.98320
  456.14030   65.03320    -999.25    -999.25    2.14370   18.05340   -7.60450
  456.26530   66.18410    -999.25    -999.25    2.13710   17.94100   -8.07700
  456.39030   66.12010    -999.25    -999.25    2.12580   17.83340   -7.58880
  456.51530   65.88420    -999.25    -999.25    2.11750   17.71180   -7.14200
  456.64030   65.77000    -999.25    -999.25    2.11460   17.63200   -7.35350
  456.76530   65.73890    -999.25    -999.25    2.11740   17.60960   -8.19300
  456.89030   65.55930    -999.25    -999.25    2.12560   17.48000   -8.27420
  457.01530   64.68350    -999.25    -999.25    2.12990   17.35200   -7.93850
  457.14030   63.46490    -999.25    -999.25    2.13400   17.22460   -7.70060
  457.26530   62.41590    -999.25    -999.25    2.13940   17.09790   -7.45590
  457.39030   62.17650    -999.25    -999.25    2.14520   17.04300   -7.53170
  457.51530   63.32140    -999.25    -999.25    2.14930   17.15580   -8.38170
  457.64030   65.54660    -999.25    -999.25    2.15340   17.24440   -8.06680
  457.76530   66.84510    -999.25    -999.25    2.15470   17.33580   -8.14230
  457.89030   67.68110    -999.25    -999.25    2.15810   17.42400   -7.71800
  458.01530   68.08460    -999.25    -999.25    2.16440   17.47400   -7.87000
  458.14030   68.15530    -999.25    -999.25    2.17120   17.47400   -8.85550
  458.26530   68.32180    -999.25    -999.25    2.17200   17.47400   -8.21330
  458.39030   69.53190    -999.25    -999.25    2.16720   17.60760   -7.74800
  458.51530   71.69580    -999.25    -999.25    2.16410   17.64000   -8.01100
  458.64030   74.03530    -999.25    -999.25    2.16610   17.74280   -8.61420
  458.76530   75.59840    -999.25    -999.25    2.16680   17.91790   -8.93050
  458.89030   75.55040    -999.25    -999.25    2.15750   18.06230   -8.55350
  459.01530   73.85420    -999.25    -999.25    2.15260   18.19920   -9.09560
  459.14030   72.11890    -999.25    -999.25    2.13890   18.38120   -9.94690
  459.26530   70.13660    -999.25    -999.25    2.12690   18.42600  -10.04950
  459.39030   68.44210    -999.25    -999.25    2.11510   18.39230   -9.74270
  459.51530   67.33960    -999.25    -999.25    2.10280   18.35030   -9.48670
  459.64030   66.53100    -999.25    -999.25    2.09300   18.30800   -9.45900
  459.76530   66.82620    -999.25    -999.25    2.08470   18.14840   -8.50060
