~Version ---------------------------------------------------
VERS. 1.2 : CWLS LOG ASCII STANDARD - VERSION 1.2
WRAP.  NO : One line per depth step
~Well ------------------------------------------------------
STRT  .M         9.2653 : 
STOP  .M      2301.1404 : 
STEP  .M          0.125 : 
NULL  .         -999.25 : 
COMP  .         COMPANY : UNKNOWN
WELL  .            WELL : KAMIAB-1
FLD   .           FIELD : UNKNOWN
LOC   .        LOCATION : UNKNOWN
CNTY  .          COUNTY : UNKNOWN
STAT  .           STATE : PUNJAB
CTRY  .         COUNTRY : PAKISTAN
SRVC  . SERVICE COMPANY : UNKNOWN
DATE  .        LOG DATE : UNKNOWN
UWI   .  UNIQUE WELL ID : KAMIAB-1
XCOORD.       SURFACE X : 0.0
YCOORD.       SURFACE Y : 0.0
LAT   .        LATITUDE : 0.0
LON   .       LONGITUDE : 0.0
ELEV  .M   SURFACE ELEV : 0.000 (type = KB)
~Curve Information -----------------------------------------
DEPTH.M                                             : Measured Depth
GR   .API           UNKNOWN        : GR:UNKNOWN:rC: : v0 (auto-composite)
NPHI .v/v_decimal UNKNOWN        : NPHI:UNKNOWN:rC: : v0 (auto-composite)
PROX .UNKNOWN     UNKNOWN        : PROX:UNKNOWN:rC: : v0 (auto-composite)
RHOB .UNKNOWN     UNKNOWN        : RHOB:UNKNOWN:rC: : v0 (auto-composite)
SN   .UNKNOWN       UNKNOWN        : SN:UNKNOWN:rC: : v0 (auto-composite)
SP   .UNKNOWN       UNKNOWN        : SP:UNKNOWN:rC: : v0 (auto-composite)
~Params ----------------------------------------------------
~Other -----------------------------------------------------
~ASCII -----------------------------------------------------
# ...
  305.39030   58.66130    -999.25    -999.25    2.08420   12.98080   -3.46050
  305.51530   58.22600    -999.25    -999.25    2.09120   12.98210   -3.75440
  305.64030   57.90640    -999.25    -999.25    2.10420   13.02790   -3.64710
  305.76530   57.99650    -999.25    -999.25    2.11900   13.11530   -3.43540
  305.89030   58.63810    -999.25    -999.25    2.12980   13.22520   -3.43230
  306.01530   59.98480    -999.25    -999.25    2.13390   13.33510   -3.12310
  306.14030   62.85790    -999.25    -999.25    2.12850   13.53040   -3.27970
  306.26530   64.94380    -999.25    -999.25    2.12030   13.65550   -3.55310
  306.39030   66.54550    -999.25    -999.25    2.10260   13.75650   -3.77230
  306.51530   67.36480    -999.25    -999.25    2.08170   13.82700   -3.67520
  306.64030   66.77940    -999.25    -999.25    2.07110   13.82700   -3.03270
  306.76530   65.84420    -999.25    -999.25    2.06130   13.82700   -2.28450
  306.89030   63.46200    -999.25    -999.25    2.06430   13.81850   -2.62260
  307.01530   59.98630    -999.25    -999.25    2.07080   13.80220   -2.89060
  307.14030   56.60800    -999.25    -999.25    2.07960   13.78290   -2.83320
  307.26530   54.05130    -999.25    -999.25    2.08960   13.76390   -2.60870
  307.39030   51.72000    -999.25    -999.25    2.09700   13.74400   -2.74600
  307.51530   51.52730    -999.25    -999.25    2.10590   13.71880   -1.97200
  307.64030   52.00920    -999.25    -999.25    2.11310   13.70540   -2.18160
  307.76530   52.26640    -999.25    -999.25    2.13010   13.65020   -2.35520
  307.89030   52.14000    -999.25    -999.25    2.15360   13.55120   -2.42190
  308.01530   52.38200    -999.25    -999.25    2.17090   13.44090   -2.70490
  308.14030   56.09010    -999.25    -999.25    2.17010   13.35320   -2.21520
  308.26530   62.96850    -999.25    -999.25    2.14940   13.39320   -2.93070
  308.39030   70.10360    -999.25    -999.25    2.14530   13.44980   -3.53630
  308.51530   76.69330    -999.25    -999.25    2.14690   13.50690   -3.72020
  308.64030   81.20120    -999.25    -999.25    2.13840   13.56360   -3.58060
  308.76530   80.89310    -999.25    -999.25    2.11040   13.62110   -3.54740
  308.89030   80.03260    -999.25    -999.25    2.07590   13.67850   -3.19140
  309.01530   79.02400    -999.25    -999.25    2.05330   13.69850   -2.91540
  309.14030   76.64870    -999.25    -999.25    2.03600   13.70300   -3.09830
  309.26530   72.26480    -999.25    -999.25    2.02130   13.70330   -3.58910
  309.39030   65.65510    -999.25    -999.25    2.00900   13.70400   -4.04350
  309.51530   56.78640    -999.25    -999.25    2.00160   13.70400   -4.37900
  309.64030   50.27390    -999.25    -999.25    2.01690   13.72370   -3.75050
  309.76530   48.49400    -999.25    -999.25    2.02490   13.75770   -3.57400
  309.89030   49.61760    -999.25    -999.25    2.02820   13.79750   -3.21700
  310.01530   51.64590    -999.25    -999.25    2.03020   13.83740   -2.60700
  310.14030   53.14430    -999.25    -999.25    2.03180   13.87680   -2.48560
  310.26530   52.29780    -999.25    -999.25    2.04820   13.91620   -2.19190
  310.39030   52.03370    -999.25    -999.25    2.06790   13.95550   -2.89010
  310.51530   51.98850    -999.25    -999.25    2.08750   13.99490   -2.94320
  310.64030   51.91850    -999.25    -999.25    2.10890   14.03940   -2.74560
  310.76530   51.67620    -999.25    -999.25    2.13260   14.08310   -2.82940
  310.89030   51.26280    -999.25    -999.25    2.14820   14.08400   -1.96080
  311.01530   50.98180    -999.25    -999.25    2.16150   13.98580   -2.65310
  311.14030   51.49700    -999.25    -999.25    2.15060   13.95440   -2.56660
  311.26530   52.30700    -999.25    -999.25    2.13550   13.88780   -2.68820
  311.39030   53.23660    -999.25    -999.25    2.12490   13.79130   -3.29990
  311.51530   54.41100    -999.25    -999.25    2.11450   13.76500   -3.84490
  311.64030   55.12460    -999.25    -999.25    2.10710   13.73800   -3.92610
  311.76530   56.77840    -999.25    -999.25    2.10110   13.71160   -3.57250
  311.89030   57.82660    -999.25    -999.25    2.10890   13.68480   -3.33330
  312.01530   57.79460    -999.25    -999.25    2.12040   13.65810   -2.97860
  312.14030   56.76910    -999.25    -999.25    2.12530   13.63190   -2.33240
  312.26530   55.35270    -999.25    -999.25    2.12700   13.60560   -1.78370
  312.39030   55.12050    -999.25    -999.25    2.12220   13.58580   -2.06910
  312.51530   55.73970    -999.25    -999.25    2.12040   13.58100   -2.11940
  312.64030   56.74980    -999.25    -999.25    2.12930   13.58100   -3.07920
  312.76530   57.77090    -999.25    -999.25    2.14390   13.58070   -4.21650
  312.89030   58.63580    -999.25    -999.25    2.15150   13.58160   -3.90650
  313.01530   59.98450    -999.25    -999.25    2.14660   13.59710   -3.47080
  313.14030   60.14430    -999.25    -999.25    2.13010   13.61420   -2.95940
  313.26530   59.46070    -999.25    -999.25    2.11310   13.63190   -2.08990
  313.39030   58.02590    -999.25    -999.25    2.10510   13.64960   -1.74410
  313.51530   56.34390    -999.25    -999.25    2.10700   13.66680   -2.38160
  313.64030   55.56700    -999.25    -999.25    2.10700   13.68400   -3.36100
  313.76530   55.12730    -999.25    -999.25    2.10700   13.69880   -3.54300
  313.89030   54.29990    -999.25    -999.25    2.11090   13.62410   -3.46420
  314.01530   52.42280    -999.25    -999.25    2.11530   13.52440   -3.18510
  314.14030   50.34180    -999.25    -999.25    2.10980   13.45900   -2.73110
  314.26530   49.54080    -999.25    -999.25    2.08890   13.44640   -2.18380
  314.39030   50.78830    -999.25    -999.25    2.08810   13.34710   -1.97790
  314.51530   52.65480    -999.25    -999.25    2.08350   13.33650   -2.24050
  314.64030   54.53640    -999.25    -999.25    2.08430   13.33710   -2.29070
  314.76530   56.08110    -999.25    -999.25    2.08600   13.33800   -2.77810
  314.89030   56.97410    -999.25    -999.25    2.08640   13.33800   -3.63170
  315.01530   56.98900    -999.25    -999.25    2.08810   13.33800   -3.71570
  315.14030   57.21380    -999.25    -999.25    2.09220   13.33800   -4.09230
  315.26530   57.60500    -999.25    -999.25    2.09570   13.33800   -3.65740
  315.39030   57.82420    -999.25    -999.25    2.10040   13.33800   -3.11860
  315.51530   58.05520    -999.25    -999.25    2.10520   13.33800   -2.75910
  315.64030   58.47090    -999.25    -999.25    2.10650   13.33800   -2.82110
  315.76530   58.46350    -999.25    -999.25    2.09660   13.33800   -4.07190
  315.89030   56.97730    -999.25    -999.25    2.08910   13.33800   -3.37680
  316.01530   55.27350    -999.25    -999.25    2.08230   13.33800   -3.60720
  316.14030   53.68850    -999.25    -999.25    2.07330   13.33800   -3.89710
  316.26530   52.26700    -999.25    -999.25    2.06270   13.33800   -3.73900
  316.39030   50.83730    -999.25    -999.25    2.05500   13.33800   -3.42580
  316.51530   49.40610    -999.25    -999.25    2.05590   13.33800   -4.03850
  316.64030   48.27090    -999.25    -999.25    2.05260   13.33800   -3.74260
  316.76530   48.30950    -999.25    -999.25    2.04900   13.33800   -3.72420
  316.89030   48.57800    -999.25    -999.25    2.04730   13.33800   -3.96940
  317.01530   48.05170    -999.25    -999.25    2.04990   13.33800   -4.04620
  317.14030   47.00910    -999.25    -999.25    2.06060   13.33800   -3.45230
  317.26530   46.51290    -999.25    -999.25    2.06810   13.33800   -3.00690
  317.39030   47.35970    -999.25    -999.25    2.07610   13.33800   -2.43680
  317.51530   48.46870    -999.25    -999.25    2.08090   13.33800   -2.42300
  317.64030   49.38480    -999.25    -999.25    2.08330   13.33800   -2.80920
  317.76530   50.29230    -999.25    -999.25    2.08730   13.33810   -2.87230
  317.89030   51.51110    -999.25    -999.25    2.09060   13.33890   -3.03960
  318.01530   53.08590    -999.25    -999.25    2.08320   13.31840   -3.24180
  318.14030   54.65160    -999.25    -999.25    2.06890   13.26860   -2.77190
