~Version ---------------------------------------------------
VERS. 1.2 : CWLS LOG ASCII STANDARD - VERSION 1.2
WRAP.  NO : One line per depth step
~Well ------------------------------------------------------
STRT  .M         9.2653 : 
STOP  .M      2301.1404 : 
STEP  .M          0.125 : 
NULL  .         -999.25 : 
COMP  .         COMPANY : UNKNOWN
WELL  .            WELL : KAMIAB-1
FLD   .           FIELD : UNKNOWN
LOC   .        LOCATION : UNKNOWN
CNTY  .          COUNTY : UNKNOWN
STAT  .           STATE : PUNJAB
CTRY  .         COUNTRY : PAKISTAN
SRVC  . SERVICE COMPANY : UNKNOWN
DATE  .        LOG DATE : UNKNOWN
UWI   .  UNIQUE WELL ID : KAMIAB-1
XCOORD.       SURFACE X : 0.0
YCOORD.       SURFACE Y : 0.0
LAT   .        LATITUDE : 0.0
LON   .       LONGITUDE : 0.0
ELEV  .M   SURFACE ELEV : 0.000 (type = KB)
~Curve Information -----------------------------------------
DEPTH.M                                             : Measured Depth
GR   .API           UNKNOWN        : GR:UNKNOWN:rC: : v0 (auto-composite)
NPHI .v/v_decimal UNKNOWN        : NPHI:UNKNOWN:rC: : v0 (auto-composite)
PROX .UNKNOWN     UNKNOWN        : PROX:UNKNOWN:rC: : v0 (auto-composite)
RHOB .UNKNOWN     UNKNOWN        : RHOB:UNKNOWN:rC: : v0 (auto-composite)
SN   .UNKNOWN       UNKNOWN        : SN:UNKNOWN:rC: : v0 (auto-composite)
SP   .UNKNOWN       UNKNOWN        : SP:UNKNOWN:rC: : v0 (auto-composite)
~Params ----------------------------------------------------
~Other -----------------------------------------------------
~ASCII -----------------------------------------------------
# ...
 1863.26540   35.92080    -999.25   27.85240    2.53800   16.74140    4.32410
 1863.39040   36.06270    -999.25   18.98070    2.51170   17.53670    4.19450
 1863.51540   34.13120    -999.25   16.21850    2.48620   18.50500    3.79120
 1863.64040   31.15150    -999.25   16.79910    2.47080   19.71900    3.25810
 1863.76540   27.46920    -999.25   22.26370    2.47030   20.59720    2.68230
 1863.89040   24.15050    -999.25   27.96450    2.48160   20.99650    2.12760
 1864.01540   22.77050    -999.25   24.37130    2.49340   21.28190    1.63750
 1864.14040   22.65730    -999.25   20.49930    2.48360   21.54290    1.36590
 1864.26540   23.45640    -999.25   17.92030    2.47030   21.80360    1.09380
 1864.39040   23.22280    -999.25   16.17550    2.46250   22.06390    0.82140
 1864.51540   22.75060    -999.25   15.89870    2.46360   22.30630    0.55000
 1864.64040   23.14640    -999.25   17.83870    2.47430   22.48400    0.29420
 1864.76540   24.03680    -999.25   22.28890    2.49230   22.48980    0.10240
 1864.89040   22.56170    -999.25   23.96770    2.48350   22.48050   -0.03910
 1865.01540   21.25970    -999.25   22.24990    2.46520   22.35740   -0.08840
 1865.14040   19.85420    -999.25   20.97000    2.44810   22.19160   -0.09530
 1865.26540   18.47680    -999.25   19.89960    2.43580   22.06250   -0.12870
 1865.39040   17.74650    -999.25   16.33210    2.42550   22.02410   -0.25680
 1865.51540   18.89850    -999.25   16.09750    2.41980   21.97820   -0.50300
 1865.64040   19.82680    -999.25   15.28020    2.46090   21.93440   -0.68650
 1865.76540   20.84920    -999.25   19.37570    2.47850   21.89140   -0.84550
 1865.89040   22.74340    -999.25   23.14350    2.47620   21.84840   -0.99580
 1866.01540   24.96400    -999.25   23.43990    2.46150   21.80480   -1.11980
 1866.14040   24.32600    -999.25   26.20500    2.41500   21.76000   -1.14800
 1866.26540   23.68060    -999.25   20.70810    2.38580   21.71300   -1.14800
 1866.39040   22.05190    -999.25   17.70140    2.37140   21.57140   -1.14610
 1866.51540   20.76300    -999.25   18.98730    2.37780   21.40780   -1.16260
 1866.64040   20.48360    -999.25   22.66140    2.40130   21.28810   -1.24000
 1866.76540   21.22560    -999.25   26.10950    2.43260   21.24330   -1.41740
 1866.89040   22.19540    -999.25   35.63730    2.46460   21.17440   -1.66190
 1867.01540   21.37410    -999.25   30.82450    2.48120   21.10620   -1.55030
 1867.14040   20.67960    -999.25   23.28430    2.47720   21.03760   -1.37680
 1867.26540   20.04470    -999.25   20.61880    2.46550   20.96870   -1.19310
 1867.39040   19.37680    -999.25   21.98340    2.45930   20.89980   -1.02150
 1867.51540   19.02960    -999.25   15.66510    2.46480   20.83090   -0.89150
 1867.64040   19.62070    -999.25   18.07470    2.45500   20.76280   -0.73570
 1867.76540   20.44880    -999.25   25.52720    2.46350   20.74510   -0.48310
 1867.89040   21.03760    -999.25   26.64500    2.47330   20.65630   -0.23010
 1868.01540   21.34990    -999.25   22.51340    2.48040   20.56000    0.03350
 1868.14040   21.53690    -999.25   20.10330    2.48490   20.50860    0.34650
 1868.26540   21.58600    -999.25   24.76500    2.47670   20.13970    0.65150
 1868.39040   22.00880    -999.25   24.81330    2.48960   19.90250    0.63000
 1868.51540   22.51530    -999.25   22.40290    2.50210   19.67860    0.60870
 1868.64040   22.83640    -999.25   20.70000    2.51230   19.45510    0.62850
 1868.76540   23.07780    -999.25   20.74050    2.51960   19.25250    0.65740
 1868.89040   23.69090    -999.25   20.70670    2.52130   19.11660    0.62850
 1869.01540   23.64170    -999.25   16.54590    2.50570   19.13050    0.68500
 1869.14040   22.89010    -999.25   11.89640    2.51180   18.89370    0.68620
 1869.26540   21.77050    -999.25   13.42020    2.50060   18.78740    0.68550
 1869.39040   20.97570    -999.25   18.91900    2.47490   18.80710    0.69060
 1869.51540   20.91610    -999.25   24.48800    2.44990   18.83580    0.68870
 1869.64040   20.80870    -999.25   31.38380    2.43100   18.86450    0.65670
 1869.76540   20.54660    -999.25   24.03810    2.43160   18.89320    0.46080
 1869.89040   21.30700    -999.25   18.91250    2.43440   18.92790    0.23310
 1870.01540   22.02390    -999.25   16.16360    2.44430   18.87630    0.12780
 1870.14040   22.75220    -999.25   16.13220    2.46240   18.81940    0.21090
 1870.26540   24.42380    -999.25   20.08420    2.48470   18.94900    0.43460
 1870.39040   24.76350    -999.25   27.77810    2.50930   18.94900    0.51500
 1870.51540   24.95500    -999.25   25.26200    2.53040   19.06900    0.60860
 1870.64040   24.18180    -999.25   19.14650    2.54780   19.22620    0.66730
 1870.76540   22.77380    -999.25   14.63260    2.56240   19.34400    0.74720
 1870.89040   21.26870    -999.25   14.86740    2.57360   19.39240    0.88690
 1871.01540   19.87490    -999.25   19.10190    2.57690   19.44080    1.02060
 1871.14040   19.36660    -999.25   25.27350    2.55700   19.48920    1.23100
 1871.26540   19.02870    -999.25   22.27030    2.54950   19.53750    1.46510
 1871.39040   18.77350    -999.25   25.92540    2.54800   19.58590    1.52910
 1871.51540   18.70270    -999.25   33.63800    2.53920   19.62580    1.45920
 1871.64040   19.00110    -999.25   31.61630    2.51410   19.64490    1.42310
 1871.76540   19.65020    -999.25   25.20560    2.51490   19.64410    1.31070
 1871.89040   19.67210    -999.25   22.10770    2.52360   19.64470    1.29340
 1872.01540   19.74680    -999.25   20.73180    2.55130   19.66660    1.43800
 1872.14040   19.76330    -999.25   21.94760    2.57850   19.71130    1.58470
 1872.26540   19.68590    -999.25   22.86410    2.59270   19.77120    1.67250
 1872.39040   19.86200    -999.25   14.01500    2.60500   19.83100    1.88800
 1872.51540   20.92870    -999.25   15.66310    2.61400   19.89180    2.10480
 1872.64040   21.63830    -999.25   12.74830    2.61860   19.95180    2.39960
 1872.76540   22.31670    -999.25    9.95100    2.60750   19.98860    2.55090
 1872.89040   23.39570    -999.25    9.66310    2.58540   19.65600    2.67810
 1873.01540   24.96440    -999.25   12.23170    2.56100   18.71110    3.01980
 1873.14040   25.32050    -999.25   15.72800    2.52080   18.16630    3.47510
 1873.26540   24.38550    -999.25   18.95720    2.47620   17.61370    3.77200
 1873.39040   23.96100    -999.25   14.01730    2.45360   16.85840    3.87860
 1873.51540   24.62580    -999.25    9.67390    2.44470   16.13030    3.86430
 1873.64040   26.16830    -999.25   10.86820    2.44360   15.60190    3.75680
 1873.76540   27.59400    -999.25   13.94910    2.45400   15.26600    3.51470
 1873.89040   27.90640    -999.25   17.68430    2.45230   14.91920    3.43430
 1874.01540   27.56760    -999.25   15.77770    2.43470   14.57210    3.31210
 1874.14040   27.52910    -999.25   12.17290    2.41290   14.38350    3.26380
 1874.26540   27.79300    -999.25   11.90310    2.39080   14.33400    3.19210
 1874.39040   27.90920    -999.25   16.73950    2.37060   14.33400    2.96040
 1874.51540   27.31800    -999.25   16.06470    2.36160   14.33400    2.60790
 1874.64040   26.38460    -999.25   12.62660    2.35790   14.24300    2.26270
 1874.76540   25.05330    -999.25    9.58180    2.35990   14.04290    2.05800
 1874.89040   24.50090    -999.25    7.75800    2.36360   13.80170    1.91320
 1875.01540   24.97510    -999.25    7.51070    2.36780   13.56180    1.81050
 1875.14040   25.66450    -999.25    9.09180    2.37310   13.32700    1.80910
 1875.26540   26.50810    -999.25   15.98350    2.35670   13.13190    1.81070
 1875.39040   27.30560    -999.25   15.02060    2.34850   12.86040    1.78560
 1875.51540   26.09000    -999.25   14.57400    2.36370   12.69330    1.72740
 1875.64040   24.00090    -999.25   14.40430    2.39600   12.63700    1.61050
 1875.76540   22.93710    -999.25   13.49990    2.43050   12.68790    1.42900
 1875.89040   24.03080    -999.25   16.09800    2.45020   12.97150    1.23970
 1876.01540   24.96080    -999.25    8.14910    2.48250   13.31050    1.28320
