~Version ---------------------------------------------------
VERS. 1.2 : CWLS LOG ASCII STANDARD - VERSION 1.2
WRAP.  NO : One line per depth step
~Well ------------------------------------------------------
STRT  .M         9.2653 : 
STOP  .M      2301.1404 : 
STEP  .M          0.125 : 
NULL  .         -999.25 : 
COMP  .         COMPANY : UNKNOWN
WELL  .            WELL : KAMIAB-1
FLD   .           FIELD : UNKNOWN
LOC   .        LOCATION : UNKNOWN
CNTY  .          COUNTY : UNKNOWN
STAT  .           STATE : PUNJAB
CTRY  .         COUNTRY : PAKISTAN
SRVC  . SERVICE COMPANY : UNKNOWN
DATE  .        LOG DATE : UNKNOWN
UWI   .  UNIQUE WELL ID : KAMIAB-1
XCOORD.       SURFACE X : 0.0
YCOORD.       SURFACE Y : 0.0
LAT   .        LATITUDE : 0.0
LON   .       LONGITUDE : 0.0
ELEV  .M   SURFACE ELEV : 0.000 (type = KB)
~Curve Information -----------------------------------------
DEPTH.M                                             : Measured Depth
GR   .API           UNKNOWN        : GR:UNKNOWN:rC: : v0 (auto-composite)
NPHI .v/v_decimal UNKNOWN        : NPHI:UNKNOWN:rC: : v0 (auto-composite)
PROX .UNKNOWN     UNKNOWN        : PROX:UNKNOWN:rC: : v0 (auto-composite)
RHOB .UNKNOWN     UNKNOWN        : RHOB:UNKNOWN:rC: : v0 (auto-composite)
SN   .UNKNOWN       UNKNOWN        : SN:UNKNOWN:rC: : v0 (auto-composite)
SP   .UNKNOWN       UNKNOWN        : SP:UNKNOWN:rC: : v0 (auto-composite)
~Params ----------------------------------------------------
~Other -----------------------------------------------------
~ASCII -----------------------------------------------------
# ...
  730.26530   55.80440    -999.25    -999.25    2.12460   16.85500   -6.52370
  730.39030   54.02380    -999.25    -999.25    2.13590   16.89410   -6.53650
  730.51530   53.11330    -999.25    -999.25    2.13780   16.95660   -6.39790
  730.64030   53.44480    -999.25    -999.25    2.13080   17.02820   -6.35500
  730.76530   54.84360    -999.25    -999.25    2.12260   17.09950   -7.26950
  730.89030   55.60060    -999.25    -999.25    2.11360   17.15370   -7.53520
  731.01530   56.32710    -999.25    -999.25    2.10590   17.16300   -6.75880
  731.14030   57.05270    -999.25    -999.25    2.09600   17.16300   -6.28370
  731.26530   58.30230    -999.25    -999.25    2.08520   17.16170   -6.22640
  731.39030   59.93670    -999.25    -999.25    2.07370   17.15790   -6.29540
  731.51530   59.46420    -999.25    -999.25    2.05400   17.15130   -6.33310
  731.64030   58.24790    -999.25    -999.25    2.06000   17.40290   -6.50500
  731.76530   56.87120    -999.25    -999.25    2.06740   17.56880   -6.62080
  731.89030   55.30070    -999.25    -999.25    2.07180   17.66350   -6.57350
  732.01530   53.50640    -999.25    -999.25    2.07300   17.72430   -6.44170
  732.14030   51.53660    -999.25    -999.25    2.07310   17.78340   -6.44850
  732.26530   49.83640    -999.25    -999.25    2.07390   17.84240   -6.72490
  732.39030   48.41670    -999.25    -999.25    2.06770   17.90150   -6.43190
  732.51530   48.22110    -999.25    -999.25    2.06550   17.93860   -6.16740
  732.64030   48.11830    -999.25    -999.25    2.06670   17.95300   -5.97980
  732.76530   47.21950    -999.25    -999.25    2.06850   17.95560   -5.82920
  732.89030   46.39110    -999.25    -999.25    2.07090   17.96870   -5.79960
  733.01530   45.93180    -999.25    -999.25    2.07900   17.81420   -5.57360
  733.14030   46.43860    -999.25    -999.25    2.08410   17.78470   -5.38850
  733.26530   48.61750    -999.25    -999.25    2.08950   17.79000   -5.26040
  733.39030   51.70650    -999.25    -999.25    2.09370   17.83260   -5.24870
  733.51530   53.87220    -999.25    -999.25    2.09320   17.96110   -5.41430
  733.64030   52.66900    -999.25    -999.25    2.09480   18.05130   -5.64480
  733.76530   49.77020    -999.25    -999.25    2.09790   18.14080   -5.76100
  733.89030   47.17600    -999.25    -999.25    2.09850   18.23190   -5.80150
  734.01530   46.90250    -999.25    -999.25    2.09840   18.28410   -5.83250
  734.14030   49.25920    -999.25    -999.25    2.09920   18.25340   -5.85880
  734.26530   51.81800    -999.25    -999.25    2.10000   18.10900   -5.77800
  734.39030   51.00160    -999.25    -999.25    2.10000   18.11150   -5.69140
  734.51530   49.20490    -999.25    -999.25    2.10130   18.06170   -5.57370
  734.64030   47.47440    -999.25    -999.25    2.10060   17.99630   -5.68320
  734.76530   46.14000    -999.25    -999.25    2.09810   17.92850   -6.05280
  734.89030   45.21230    -999.25    -999.25    2.09530   17.85430   -6.49270
  735.01530   45.24590    -999.25    -999.25    2.08950   17.75590   -6.38940
  735.14030   44.79930    -999.25    -999.25    2.08830   17.65750   -6.54780
  735.26530   45.22900    -999.25    -999.25    2.08690   17.55850   -6.56370
  735.39030   45.86520    -999.25    -999.25    2.08480   17.45970   -6.30920
  735.51530   46.47740    -999.25    -999.25    2.08300   17.36120   -5.93930
  735.64030   47.68900    -999.25    -999.25    2.08280   17.26280   -5.88060
  735.76530   48.12290    -999.25    -999.25    2.07790   17.16350   -5.92980
  735.89030   47.66250    -999.25    -999.25    2.06900   17.05160   -5.86560
  736.01530   47.35740    -999.25    -999.25    2.06690   17.00840   -5.86510
  736.14030   47.41580    -999.25    -999.25    2.06750   16.91750   -5.96080
  736.26530   47.40920    -999.25    -999.25    2.06520   16.70140   -5.99550
  736.39030   45.99930    -999.25    -999.25    2.07250   16.67850   -5.38280
  736.51530   45.62350    -999.25    -999.25    2.07840   16.62940   -5.19270
  736.64030   45.04390    -999.25    -999.25    2.08060   16.57850   -5.43470
  736.76530   44.46000    -999.25    -999.25    2.08350   16.52770   -5.75610
  736.89030   43.97990    -999.25    -999.25    2.08860   16.47660   -5.84880
  737.01530   43.59090    -999.25    -999.25    2.09400   16.42500   -5.57200
  737.14030   44.64480    -999.25    -999.25    2.09490   16.37410   -5.52110
  737.26530   45.33830    -999.25    -999.25    2.10050   16.32460   -5.53510
  737.39030   45.27080    -999.25    -999.25    2.10810   16.28460   -5.53020
  737.51530   44.68390    -999.25    -999.25    2.11560   16.31410   -5.60630
  737.64030   44.17650    -999.25    -999.25    2.12400   16.39410   -5.77580
  737.76530   44.67190    -999.25    -999.25    2.14040   16.27440   -5.69780
  737.89030   46.07770    -999.25    -999.25    2.15360   16.14120   -5.98500
  738.01530   47.78460    -999.25    -999.25    2.15760   16.11370   -7.04950
  738.14030   49.29230    -999.25    -999.25    2.15540   16.07830   -7.36740
  738.26530   50.57550    -999.25    -999.25    2.15430   16.00160   -6.91510
  738.39030   51.78240    -999.25    -999.25    2.16110   15.92210   -6.83260
  738.51530   51.28120    -999.25    -999.25    2.16190   15.84250   -7.28780
  738.64030   50.96090    -999.25    -999.25    2.15490   15.76300   -7.83770
  738.76530   50.63940    -999.25    -999.25    2.14560   15.68390   -7.18970
  738.89030   49.78400    -999.25    -999.25    2.13510   15.60480   -6.27000
  739.01530   48.60900    -999.25    -999.25    2.12200   15.52530   -6.00240
  739.14030   48.82500    -999.25    -999.25    2.10300   15.44500   -6.26400
  739.26530   49.13220    -999.25    -999.25    2.10300   15.30030   -6.38100
  739.39030   49.33650    -999.25    -999.25    2.10740   15.13730   -5.70870
  739.51530   48.62480    -999.25    -999.25    2.10500   15.03120   -5.10050
  739.64030   47.59880    -999.25    -999.25    2.09950   14.94350   -4.87790
  739.76530   47.44100    -999.25    -999.25    2.10180   14.80260   -4.92030
  739.89030   47.76580    -999.25    -999.25    2.10920   14.74690   -4.78250
  740.01530   48.39880    -999.25    -999.25    2.11440   14.69110   -4.99330
  740.14030   49.29160    -999.25    -999.25    2.10990   14.63530   -4.93810
  740.26530   49.91550    -999.25    -999.25    2.10460   14.57990   -5.00440
  740.39030   49.86830    -999.25    -999.25    2.10420   14.52360   -5.33780
  740.51530   49.10140    -999.25    -999.25    2.10500   14.46400   -5.49990
  740.64030   48.24180    -999.25    -999.25    2.10420   14.46400   -5.60490
  740.76530   46.43140    -999.25    -999.25    2.10790   14.37880   -5.52640
  740.89030   45.10070    -999.25    -999.25    2.11670   14.27310   -5.52010
  741.01530   44.41180    -999.25    -999.25    2.12610   14.16850   -5.58190
  741.14030   43.99770    -999.25    -999.25    2.13100   14.06480   -5.62950
  741.26530   43.95350    -999.25    -999.25    2.13100   13.96390   -5.78210
  741.39030   44.48620    -999.25    -999.25    2.12340   13.86300   -5.78270
  741.51530   45.11550    -999.25    -999.25    2.12220   13.76210   -5.95310
  741.64030   45.68340    -999.25    -999.25    2.12300   13.66120   -6.08930
  741.76530   46.35000    -999.25    -999.25    2.12170   13.56030   -6.07490
  741.89030   47.43390    -999.25    -999.25    2.11650   13.45950   -5.97760
  742.01530   46.38820    -999.25    -999.25    2.10590   13.35940   -5.99160
  742.14030   45.21370    -999.25    -999.25    2.10260   13.25870   -5.71830
  742.26530   44.84250    -999.25    -999.25    2.10550   13.15980   -5.45860
  742.39030   45.04870    -999.25    -999.25    2.10900   13.06280   -5.35510
  742.51530   45.26780    -999.25    -999.25    2.10860   12.98300   -5.41290
  742.64030   45.24900    -999.25    -999.25    2.10610   12.98300   -5.42440
  742.76530   46.10220    -999.25    -999.25    2.12160   12.98300   -4.91270
  742.89030   50.64990    -999.25    -999.25    2.12960   12.98300   -4.60290
  743.01530   55.26620    -999.25    -999.25    2.13660   12.98300   -4.55170
