~Version ---------------------------------------------------
VERS. 1.2 : CWLS LOG ASCII STANDARD - VERSION 1.2
WRAP.  NO : One line per depth step
~Well ------------------------------------------------------
STRT  .M         9.2653 : 
STOP  .M      2301.1404 : 
STEP  .M          0.125 : 
NULL  .         -999.25 : 
COMP  .         COMPANY : UNKNOWN
WELL  .            WELL : KAMIAB-1
FLD   .           FIELD : UNKNOWN
LOC   .        LOCATION : UNKNOWN
CNTY  .          COUNTY : UNKNOWN
STAT  .           STATE : PUNJAB
CTRY  .         COUNTRY : PAKISTAN
SRVC  . SERVICE COMPANY : UNKNOWN
DATE  .        LOG DATE : UNKNOWN
UWI   .  UNIQUE WELL ID : KAMIAB-1
XCOORD.       SURFACE X : 0.0
YCOORD.       SURFACE Y : 0.0
LAT   .        LATITUDE : 0.0
LON   .       LONGITUDE : 0.0
ELEV  .M   SURFACE ELEV : 0.000 (type = KB)
~Curve Information -----------------------------------------
DEPTH.M                                             : Measured Depth
GR   .API           UNKNOWN        : GR:UNKNOWN:rC: : v0 (auto-composite)
NPHI .v/v_decimal UNKNOWN        : NPHI:UNKNOWN:rC: : v0 (auto-composite)
PROX .UNKNOWN     UNKNOWN        : PROX:UNKNOWN:rC: : v0 (auto-composite)
RHOB .UNKNOWN     UNKNOWN        : RHOB:UNKNOWN:rC: : v0 (auto-composite)
SN   .UNKNOWN       UNKNOWN        : SN:UNKNOWN:rC: : v0 (auto-composite)
SP   .UNKNOWN       UNKNOWN        : SP:UNKNOWN:rC: : v0 (auto-composite)
~Params ----------------------------------------------------
~Other -----------------------------------------------------
~ASCII -----------------------------------------------------
# ...
 1438.39040   84.64330    -999.25    -999.25    2.28070    6.00110    3.94410
 1438.51540   85.38880    -999.25    -999.25    2.28180    6.11320    3.77970
 1438.64040   85.66840    -999.25    -999.25    2.26540    6.24360    3.49360
 1438.76540   84.51990    -999.25    -999.25    2.25460    6.34120    3.37700
 1438.89040   84.21880    -999.25    -999.25    2.23960    6.37500    3.18150
 1439.01540   84.78160    -999.25    -999.25    2.21880    6.37500    2.89810
 1439.14040   85.25620    -999.25    -999.25    2.19600    6.38420    2.55470
 1439.26540   84.03040    -999.25    -999.25    2.18040    6.43180    2.11000
 1439.39040   81.50220    -999.25    -999.25    2.16320    6.43380    1.47860
 1439.51540   80.28460    -999.25    -999.25    2.15470    6.43280    1.12340
 1439.64040   79.72710    -999.25    -999.25    2.16120    6.43200    0.87950
 1439.76540   79.18270    -999.25    -999.25    2.18050    6.49340    0.69250
 1439.89040   78.07130    -999.25    -999.25    2.20460    6.68270    0.59100
 1440.01540   75.33710    -999.25    -999.25    2.23080    6.83280    0.49920
 1440.14040   72.02570    -999.25    -999.25    2.25560    7.03190    0.46200
 1440.26540   70.01570    -999.25    -999.25    2.28020    7.31510    0.56240
 1440.39040   68.93480    -999.25    -999.25    2.30050    7.74330    0.83650
 1440.51540   67.12730    -999.25    -999.25    2.31090    8.33200    1.29530
 1440.64040   61.80100    -999.25    -999.25    2.30600    9.01300    1.92400
 1440.76540   57.15030    -999.25    -999.25    2.25180    9.67700    2.35960
 1440.89040   53.78020    -999.25    -999.25    2.17130    9.99380    2.66210
 1441.01540   50.87780    -999.25    -999.25    2.06870    9.96560    2.85940
 1441.14040   49.18670    -999.25    -999.25    1.95560    9.53560    2.99610
 1441.26540   49.81280    -999.25    -999.25    1.86160    8.71610    3.14290
 1441.39040   51.69030    -999.25    -999.25    1.89030    7.96010    3.46010
 1441.51540   54.80970    -999.25    -999.25    1.93910    7.20370    3.86910
 1441.64040   58.75200    -999.25    -999.25    1.98320    6.58500    4.20620
 1441.76540   62.88200    -999.25    -999.25    2.04490    6.13180    4.51600
 1441.89040   65.67480    -999.25    -999.25    2.12230    5.81600    4.80140
 1442.01540   64.82590    -999.25    -999.25    2.17560    5.56520    4.97570
 1442.14040   62.50800    -999.25    -999.25    2.23230    5.39950    4.99860
 1442.26540   63.39710    -999.25    -999.25    2.23770    5.37260    4.95050
 1442.39040   65.89310    -999.25    -999.25    2.23110    5.35370    4.72630
 1442.51540   67.74320    -999.25    -999.25    2.22700    5.32090    4.49770
 1442.64040   67.36380    -999.25    -999.25    2.22640    5.29400    4.49540
 1442.76540   66.23070    -999.25    -999.25    2.22230    5.26780    4.75470
 1442.89040   63.21770    -999.25    -999.25    2.21820    5.24070    4.84470
 1443.01540   60.28350    -999.25    -999.25    2.22110    5.21430    5.01170
 1443.14040   58.93290    -999.25    -999.25    2.21910    5.19330    5.07870
 1443.26540   59.09080    -999.25    -999.25    2.21720    5.18200    5.04130
 1443.39040   59.28980    -999.25    -999.25    2.23590    5.18200    5.10190
 1443.51540   61.13430    -999.25    -999.25    2.25230    5.18200    5.31360
 1443.64040   62.84780    -999.25    -999.25    2.25910    5.18200    5.51280
 1443.76540   65.18760    -999.25    -999.25    2.25190    5.18250    5.68740
 1443.89040   67.54790    -999.25    -999.25    2.23970    5.17120    5.71460
 1444.01540   68.56240    -999.25    -999.25    2.23180    5.14010    5.57670
 1444.14040   66.05490    -999.25    -999.25    2.22530    5.10150    5.60300
 1444.26540   64.27070    -999.25    -999.25    2.22740    5.06380    5.43070
 1444.39040   64.72660    -999.25    -999.25    2.22980    5.02600    5.24240
 1444.51540   65.59990    -999.25    -999.25    2.22630    5.00410    5.08810
 1444.64040   65.45110    -999.25    -999.25    2.21950    4.98780    4.99930
 1444.76540   63.78110    -999.25    -999.25    2.21770    4.94800    4.98690
 1444.89040   63.05220    -999.25    -999.25    2.21440    4.87580    5.00990
 1445.01540   62.88570    -999.25    -999.25    2.20970    4.83480    5.06120
 1445.14040   63.96120    -999.25    -999.25    2.20750    4.79290    5.08420
 1445.26540   66.19070    -999.25    -999.25    2.20700    4.74880    5.07370
 1445.39040   69.19840    -999.25    -999.25    2.20580    4.70620    5.00630
 1445.51540   72.55000    -999.25    -999.25    2.20000    4.66300    4.79700
 1445.64040   73.26110    -999.25    -999.25    2.20570    4.62010    4.68200
 1445.76540   73.96120    -999.25    -999.25    2.21580    4.58350    4.83340
 1445.89040   74.62400    -999.25    -999.25    2.22460    4.55000    5.04030
 1446.01540   75.65730    -999.25    -999.25    2.23060    4.51690    5.19450
 1446.14040   77.33740    -999.25    -999.25    2.23350    4.48700    5.27150
 1446.26540   77.74650    -999.25    -999.25    2.22040    4.48700    5.24940
 1446.39040   77.35370    -999.25    -999.25    2.20660    4.44020    5.21120
 1446.51540   76.37980    -999.25    -999.25    2.19810    4.40320    5.18150
 1446.64040   75.53780    -999.25    -999.25    2.19090    4.37360    5.33370
 1446.76540   75.82850    -999.25    -999.25    2.18460    4.34410    5.66270
 1446.89040   78.33700    -999.25    -999.25    2.18700    4.31500    5.86800
 1447.01540   80.20120    -999.25    -999.25    2.18450    4.29420    5.82810
 1447.14040   81.22130    -999.25    -999.25    2.18200    4.26450    5.86960
 1447.26540   83.00390    -999.25    -999.25    2.18050    4.21510    5.76450
 1447.39040   85.48320    -999.25    -999.25    2.18320    4.17500    5.56150
 1447.51540   87.04900    -999.25    -999.25    2.19190    4.17500    5.40470
 1447.64040   83.11530    -999.25    -999.25    2.19850    4.17500    5.25790
 1447.76540   81.13230    -999.25    -999.25    2.19900    4.17500    5.12390
 1447.89040   80.50120    -999.25    -999.25    2.19900    4.18880    5.12700
 1448.01540   80.43010    -999.25    -999.25    2.19860    4.20920    5.13850
 1448.14040   80.42160    -999.25    -999.25    2.19610    4.23080    5.11360
 1448.26540   80.43830    -999.25    -999.25    2.18850    4.25290    5.13500
 1448.39040   80.78130    -999.25    -999.25    2.17530    4.27420    5.06360
 1448.51540   81.38240    -999.25    -999.25    2.17030    4.28610    4.87420
 1448.64040   81.75830    -999.25    -999.25    2.17000    4.29000    4.66280
 1448.76540   81.60810    -999.25    -999.25    2.17160    4.29000    4.58280
 1448.89040   81.27950    -999.25    -999.25    2.17260    4.29000    4.71410
 1449.01540   82.81880    -999.25    -999.25    2.17010    4.29000    4.86670
 1449.14040   85.82880    -999.25    -999.25    2.17390    4.29000    4.90530
 1449.26540   86.43930    -999.25    -999.25    2.16720    4.30130    5.01180
 1449.39040   85.82550    -999.25    -999.25    2.15200    4.32570    5.03680
 1449.51540   84.62200    -999.25    -999.25    2.13820    4.35820    4.99200
 1449.64040   82.56100    -999.25    -999.25    2.14020    4.39020    5.04570
 1449.76540   79.09600    -999.25    -999.25    2.15830    4.42220    5.21470
 1449.89040   80.70930    -999.25    -999.25    2.16030    4.45420    5.46580
 1450.01540   80.02190    -999.25    -999.25    2.15380    4.47690    5.69750
 1450.14040   77.70280    -999.25    -999.25    2.13960    4.50190    5.79400
 1450.26540   75.95340    -999.25    -999.25    2.12130    4.53010    5.71440
 1450.39040   75.15340    -999.25    -999.25    2.11220    4.52510    5.58640
 1450.51540   74.90860    -999.25    -999.25    2.13990    4.56090    5.45770
 1450.64040   74.70980    -999.25    -999.25    2.16370    4.56940    5.26650
 1450.76540   74.59040    -999.25    -999.25    2.17360    4.60980    5.16100
 1450.89040   74.43960    -999.25    -999.25    2.16320    4.67980    5.10260
 1451.01540   73.99390    -999.25    -999.25    2.13860    4.73640    4.94470
 1451.14040   72.65340    -999.25    -999.25    2.17540    4.79300    4.77490
