~Version ---------------------------------------------------
VERS. 1.2 : CWLS LOG ASCII STANDARD - VERSION 1.2
WRAP.  NO : One line per depth step
~Well ------------------------------------------------------
STRT  .M         9.2653 : 
STOP  .M      2301.1404 : 
STEP  .M          0.125 : 
NULL  .         -999.25 : 
COMP  .         COMPANY : UNKNOWN
WELL  .            WELL : KAMIAB-1
FLD   .           FIELD : UNKNOWN
LOC   .        LOCATION : UNKNOWN
CNTY  .          COUNTY : UNKNOWN
STAT  .           STATE : PUNJAB
CTRY  .         COUNTRY : PAKISTAN
SRVC  . SERVICE COMPANY : UNKNOWN
DATE  .        LOG DATE : UNKNOWN
UWI   .  UNIQUE WELL ID : KAMIAB-1
XCOORD.       SURFACE X : 0.0
YCOORD.       SURFACE Y : 0.0
LAT   .        LATITUDE : 0.0
LON   .       LONGITUDE : 0.0
ELEV  .M   SURFACE ELEV : 0.000 (type = KB)
~Curve Information -----------------------------------------
DEPTH.M                                             : Measured Depth
GR   .API           UNKNOWN        : GR:UNKNOWN:rC: : v0 (auto-composite)
NPHI .v/v_decimal UNKNOWN        : NPHI:UNKNOWN:rC: : v0 (auto-composite)
PROX .UNKNOWN     UNKNOWN        : PROX:UNKNOWN:rC: : v0 (auto-composite)
RHOB .UNKNOWN     UNKNOWN        : RHOB:UNKNOWN:rC: : v0 (auto-composite)
SN   .UNKNOWN       UNKNOWN        : SN:UNKNOWN:rC: : v0 (auto-composite)
SP   .UNKNOWN       UNKNOWN        : SP:UNKNOWN:rC: : v0 (auto-composite)
~Params ----------------------------------------------------
~Other -----------------------------------------------------
~ASCII -----------------------------------------------------
# ...
 2288.14040   80.60040   16.47040   14.57410    2.51140   15.43400    1.81910
 2288.26540   74.87410   13.82260   13.24570    2.53190   15.66370    1.07080
 2288.39040   68.33140   12.78910   14.21300    2.52490   15.80300    0.69530
 2288.51540   58.53770   12.86030   13.64250    2.51760   15.85200    0.58980
 2288.64040   48.51910   13.29920   12.93280    2.52010   15.85200    0.64050
 2288.76540   42.19970   13.48530   15.07750    2.53090   15.85200    0.71550
 2288.89040   36.85730   13.62970   19.44420    2.53750   15.85200    0.62600
 2289.01540   33.31680   13.81790   16.75350    2.54330   15.96090    0.55100
 2289.14040   29.96340   14.38220   15.85210    2.55130   16.07890    0.30560
 2289.26540   26.26780   15.05740   15.49650    2.55760   16.02610    0.02310
 2289.39040   21.99460   15.56880   14.80790    2.55760   15.97770   -0.21190
 2289.51540   17.34620   15.72500   14.72030    2.54910   16.43940   -0.41690
 2289.64040   16.31890   15.09560   17.48880    2.55070   16.56000   -0.54900
 2289.76540   16.12990   14.45360   18.88290    2.54420   16.67910   -0.85210
 2289.89040   15.53320   13.87280   19.06230    2.53700   16.87640   -1.98840
 2290.01540   14.93050   13.27570   18.80200    2.52920   17.07430   -3.86000
 2290.14040   14.86410   12.64550   18.57850    2.52070   17.32840   -6.07030
 2290.26540   14.50060   12.30830   17.24520    2.51910   18.26130   -8.26760
 2290.39040   14.42210   12.51990   32.29790    2.51980   19.37410  -10.59650
 2290.51540   14.75070   12.69030   49.02390    2.52780   20.11060  -11.38370
 2290.64040   15.25010   12.56460   49.60670    2.54220   21.12090  -11.38580
 2290.76540   15.66370   11.94280   33.81680    2.55790   22.51600  -11.08170
 2290.89040   15.80640   10.76840   18.61030    2.56690   23.92010  -10.53890
 2291.01540   15.93770    9.89700   28.07250    2.56610   25.95170  -10.10560
 2291.14040   16.07090    9.23570   35.47250    2.57650   26.92300   -9.63870
 2291.26540   16.15430    8.70140   35.40140    2.59090   27.34070   -9.16870
 2291.39040   16.08590    8.55850   25.49920    2.59970   27.37550   -8.73210
 2291.51540   15.69190    8.97080   16.78070    2.59960   27.02140   -8.32810
 2291.64040   14.67030    9.69280   46.28470    2.60290   26.03840   -7.87190
 2291.76540   11.41280   11.96200   65.70160    2.59820   25.64390   -7.56670
 2291.89040    7.31390   18.11000   34.37580    2.59640   24.18660   -7.22150
 2292.01540    3.45390   27.22180    8.73060    2.59820   21.81080   -6.91580
 2292.14040    -999.25   39.19330    4.82580    2.59840   19.88080   -6.66620
 2292.26540    -999.25   52.59330    6.96510    2.59130   19.60920   -6.42900
 2292.39040    -999.25   52.20360   10.77470    2.59460   16.13520   -6.11640
 2292.51540    -999.25   52.47510    8.97950    2.57990   13.84680   -5.85760
 2292.64040    -999.25   52.56610   11.59040    2.57620   12.39220   -5.53920
 2292.76540    -999.25   46.48910   13.49790    2.57910   11.81030   -5.23810
 2292.89040    -999.25   30.50210   12.13900    2.57830   11.98730   -5.03150
 2293.01540    -999.25    6.65900   14.27700    2.56600   12.48600   -4.92600
 2293.14040    -999.25    6.50030   10.68690    2.57750   12.91100   -4.84710
 2293.26540    -999.25    6.36390    6.36110    2.58640   13.15460   -4.81330
 2293.39040    -999.25    6.25290    4.24340    2.59090   13.07560   -4.75540
 2293.51540    -999.25    6.23990    5.21240    2.58940   12.63350   -4.73640
 2293.64040    -999.25    6.39030    8.52750    2.58270   11.92770   -4.84320
 2293.76540    -999.25    6.58200   12.07050    2.58020   11.39600   -4.93990
 2293.89040    -999.25    6.64530   11.83910    2.57630   10.62130   -5.06940
 2294.01540    -999.25    6.79010   31.02580    2.57500   10.61910   -5.11330
 2294.14040    -999.25    7.16170   41.60100    2.56690   11.18220   -5.19190
 2294.26540    -999.25    7.84960   29.87780    2.54950   11.95700   -5.34720
 2294.39040    -999.25    8.93860   11.90270    2.53250   12.72440   -5.48250
 2294.51540    -999.25   12.45460   13.41490    2.54890   14.93950   -5.82250
 2294.64040    -999.25   39.16880   12.12650    2.57060   15.92840   -6.19350
 2294.76540    -999.25   52.53940   12.17690    2.58190   16.91720   -6.74450
 2294.89040    -999.25   52.65450   14.00570    2.58030   17.91060   -7.31540
 2295.01540    -999.25   52.33680   16.39740    2.57170   18.51740   -7.73110
 2295.14040    -999.25   52.25730   18.18000    2.57010   18.79260   -8.21280
 2295.26540    -999.25   47.79320   22.01200    2.58070   19.20530   -8.92730
 2295.39040    -999.25   33.21870   21.64310    2.58280   19.42860   -8.98420
 2295.51540    -999.25   19.34220   17.34730    2.57310   19.57260   -8.81400
 2295.64040    -999.25   12.55320   13.80590    2.55500   19.67700   -8.90670
 2295.76540    -999.25   12.08240   18.37030    2.53680   19.66890   -9.56560
 2295.89040    -999.25   12.72980   28.34530    2.51630   19.52450  -10.09240
 2296.01540    -999.25   13.60810   28.22530    2.50200   19.02680  -10.40750
 2296.14040    -999.25   15.28720   25.95150    2.50610   18.64040  -10.68970
 2296.26540    -999.25   16.82440   21.48120    2.51760   18.31320  -11.08650
 2296.39040    -999.25   17.36310   15.37680    2.52230   18.00620  -11.63450
 2296.51540    -999.25   17.50730   15.95520    2.51820   18.13970  -12.12270
 2296.64040    -999.25   17.32780   16.92300    2.51880   17.70130  -12.65750
 2296.76540    -999.25   17.81360   16.71440    2.50070   17.15710  -13.09610
 2296.89040    -999.25   18.68680   15.69250    2.49110   16.44110  -13.46800
 2297.01540    -999.25   19.36580   15.00450    2.49300   15.71210  -13.79050
 2297.14040    -999.25   19.20090   15.77660    2.48600   15.30050  -14.06730
 2297.26540    -999.25   18.09890   15.09070    2.43750   15.41460  -14.33400
 2297.39040    -999.25   17.32480   15.07610    2.41110   15.33140  -14.40120
 2297.51540    -999.25   17.63310   16.83840    2.39350   15.21840  -14.43040
 2297.64040    -999.25   18.18310   19.38800    2.38640   15.20200  -14.45240
 2297.76540    -999.25   18.12680   19.86670    2.38970   15.50990  -14.45940
 2297.89040    -999.25   17.39600   12.97500    2.39300   16.58200  -14.42700
 2298.01540    -999.25   17.53870   12.74560    2.38980   16.95000  -14.39540
 2298.14040    -999.25   16.75720   12.58280    2.39910   18.15620  -14.28890
 2298.26540    -999.25   16.01590    -999.25    2.41310   19.44550  -14.14430
 2298.39040    -999.25   15.83750    -999.25    2.42110   20.67980  -13.98680
 2298.51540    -999.25   16.31860    -999.25    2.41730   21.95930  -13.82880
 2298.64040    -999.25   17.18920    -999.25    2.42880   22.28670  -13.66470
 2298.76540    -999.25   16.64170    -999.25    2.41760   22.32200  -13.75100
 2298.89040    -999.25   16.95130    -999.25    2.39370   22.77460  -13.73760
 2299.01540    -999.25   17.74220    -999.25    2.35830   24.18290  -13.68070
 2299.14040    -999.25   18.53690    -999.25    2.31250   26.02540  -13.69880
 2299.26540    -999.25   19.38380    -999.25    2.25950   26.38440  -13.88620
 2299.39040    -999.25   18.39020    -999.25    2.23000   25.81990  -14.09290
 2299.51540    -999.25   17.01750    -999.25    2.20570   26.06120  -14.08470
 2299.64040    -999.25   15.71260    -999.25    2.19030   26.36260  -14.03670
 2299.76540    -999.25   10.59900    -999.25    2.18840   26.48800  -14.05020
 2299.89040    -999.25    0.08510    -999.25    2.19850   26.46000  -14.14140
 2300.01540    -999.25    0.00630    -999.25    2.19530   26.25730  -14.15120
 2300.14040    -999.25   -0.07240    -999.25    2.18520   26.25460  -14.15800
 2300.26540    -999.25   -0.09140    -999.25    2.19980   26.25270  -14.16460
 2300.39040    -999.25   -0.08800    -999.25    2.29260   26.24880  -14.17150
 2300.51540    -999.25   -0.08820    -999.25    2.48790   26.25000  -14.17830
 2300.64040    -999.25   -0.08890    -999.25    2.75500   26.25000  -14.18300
 2300.76540    -999.25   -0.08560    -999.25    2.75590   26.25090  -14.18300
 2300.89040    -999.25   -0.08700    -999.25    2.75330   26.25370  -14.18300
